name	cityid	lat	lon	google
Ishikawa-ken	1861387	36.77145	136.770493	https://www.google.co.jp/maps/@36.77145,136.770493,15z
Matoba	1857578	34.25	133.949997	https://www.google.co.jp/maps/@34.25,133.949997,15z
Japan	1861060	35.68536	139.753098	https://www.google.co.jp/maps/@35.68536,139.753098,15z
Hokkaidō	2130037	43.06451	141.346603	https://www.google.co.jp/maps/@43.06451,141.346603,15z
Hashimoto	2130135	40.816669	140.75	https://www.google.co.jp/maps/@40.816669,140.75,15z
Tsukuba-kenkyūgakuen-toshi	2110681	36.083328	140.116669	https://www.google.co.jp/maps/@36.083328,140.116669,15z
Higashi-asahimachi	1862845	35.466671	133.066666	https://www.google.co.jp/maps/@35.466671,133.066666,15z
Hanabatachō	1863250	32.799999	130.699997	https://www.google.co.jp/maps/@32.799999,130.699997,15z
Senzaki	1852699	34.383331	131.199997	https://www.google.co.jp/maps/@34.383331,131.199997,15z
Sakaki	1853163	36.466671	138.183334	https://www.google.co.jp/maps/@36.466671,138.183334,15z
Daisen	1864427	35.383331	133.533325	https://www.google.co.jp/maps/@35.383331,133.533325,15z
Ikaruga	1861816	34.833328	134.583328	https://www.google.co.jp/maps/@34.833328,134.583328,15z
Matsuzaki	1857451	34.75	138.783325	https://www.google.co.jp/maps/@34.75,138.783325,15z
Noboribetsu	2128894	42.451389	141.173065	https://www.google.co.jp/maps/@42.451389,141.173065,15z
Tōkyō-to	1850144	35.689499	139.691711	https://www.google.co.jp/maps/@35.689499,139.691711,15z
Kimiidera	1859472	34.183331	135.199997	https://www.google.co.jp/maps/@34.183331,135.199997,15z
Youkaichi	1848382	35.116261	136.197678	https://www.google.co.jp/maps/@35.116261,136.197678,15z
Ushibuka	1849154	32.190559	130.022781	https://www.google.co.jp/maps/@32.190559,130.022781,15z
Suzaka	1851357	36.650002	138.316666	https://www.google.co.jp/maps/@36.650002,138.316666,15z
Susaki	1851390	33.366669	133.283325	https://www.google.co.jp/maps/@33.366669,133.283325,15z
Sueyoshi	1851542	31.65	131.016663	https://www.google.co.jp/maps/@31.65,131.016663,15z
Shinichi	1852102	34.549999	133.266663	https://www.google.co.jp/maps/@34.549999,133.266663,15z
Ono	1854028	34.283329	132.266663	https://www.google.co.jp/maps/@34.283329,132.266663,15z
Hofu	1862302	34.049999	131.566666	https://www.google.co.jp/maps/@34.049999,131.566666,15z
Haebaru	1863426	26.336941	127.871941	https://www.google.co.jp/maps/@26.336941,127.871941,15z
Onagawa Cho	2111401	38.438332	141.449997	https://www.google.co.jp/maps/@38.438332,141.449997,15z
Hinode	2130075	43.066669	141.916672	https://www.google.co.jp/maps/@43.066669,141.916672,15z
Hyōgo-ken	1862047	35.040321	134.825974	https://www.google.co.jp/maps/@35.040321,134.825974,15z
Myōrakuji	1856300	34.966671	134.916672	https://www.google.co.jp/maps/@34.966671,134.916672,15z
Ehime-ken	1864226	33.625801	132.854721	https://www.google.co.jp/maps/@33.625801,132.854721,15z
Yokogawara	1926016	33.803761	132.886414	https://www.google.co.jp/maps/@33.803761,132.886414,15z
Yamagata-ken	2110554	38.450298	140.099701	https://www.google.co.jp/maps/@38.450298,140.099701,15z
Mazawa	2114102	38.433891	140.124176	https://www.google.co.jp/maps/@38.433891,140.124176,15z
Yamaguchi-ken	1848681	34.206081	131.570465	https://www.google.co.jp/maps/@34.206081,131.570465,15z
Daidō	1864470	34.049999	131.483337	https://www.google.co.jp/maps/@34.049999,131.483337,15z
Yamanashi-ken	1848649	35.61602	138.608002	https://www.google.co.jp/maps/@35.61602,138.608002,15z
Isawa	1861454	35.650002	138.633331	https://www.google.co.jp/maps/@35.650002,138.633331,15z
Aichi-ken	1865694	35.180168	136.906555	https://www.google.co.jp/maps/@35.180168,136.906555,15z
Arimatsu	1865110	35.066669	136.966675	https://www.google.co.jp/maps/@35.066669,136.966675,15z
Wada	2110608	39.650002	140.216675	https://www.google.co.jp/maps/@39.650002,140.216675,15z
Ibaraki-ken	2112669	36.310349	140.316147	https://www.google.co.jp/maps/@36.310349,140.316147,15z
Mukai-awagasaki	1856472	36.633331	136.633331	https://www.google.co.jp/maps/@36.633331,136.633331,15z
Kobaruyama	1859181	32.01667	131.283325	https://www.google.co.jp/maps/@32.01667,131.283325,15z
Sembonyama	1852748	32.700001	129.850006	https://www.google.co.jp/maps/@32.700001,129.850006,15z
Morizane	1856566	33.400002	131.033325	https://www.google.co.jp/maps/@33.400002,131.033325,15z
Shiobaru	1852025	33.566669	130.433334	https://www.google.co.jp/maps/@33.566669,130.433334,15z
Ono	1854029	33.98333	134.366669	https://www.google.co.jp/maps/@33.98333,134.366669,15z
Nagao	1856207	34.26667	134.166672	https://www.google.co.jp/maps/@34.26667,134.166672,15z
Ageki	1865721	35.150002	136.516663	https://www.google.co.jp/maps/@35.150002,136.516663,15z
Hayashi	1862978	35.216671	139.633331	https://www.google.co.jp/maps/@35.216671,139.633331,15z
Kamonomiya	1860310	35.283329	139.183334	https://www.google.co.jp/maps/@35.283329,139.183334,15z
Koyasu	1907255	35.41806	139.255554	https://www.google.co.jp/maps/@35.41806,139.255554,15z
Miyanomae	1907235	35.422779	139.392776	https://www.google.co.jp/maps/@35.422779,139.392776,15z
Kubota	6419788	35.453331	140.008331	https://www.google.co.jp/maps/@35.453331,140.008331,15z
Shimo-kodanaka	1852278	35.566669	139.633331	https://www.google.co.jp/maps/@35.566669,139.633331,15z
Denenchōfu	1864381	35.583328	139.666672	https://www.google.co.jp/maps/@35.583328,139.666672,15z
Nishi-hanawa	1855301	35.583328	138.533325	https://www.google.co.jp/maps/@35.583328,138.533325,15z
Fujino	1907157	35.606392	139.143066	https://www.google.co.jp/maps/@35.606392,139.143066,15z
Asagaya	1865090	35.700001	139.649994	https://www.google.co.jp/maps/@35.700001,139.649994,15z
Egotamachi	1864231	35.73333	139.666672	https://www.google.co.jp/maps/@35.73333,139.666672,15z
Awatabe	1864878	35.915611	136.239395	https://www.google.co.jp/maps/@35.915611,136.239395,15z
Ono	1854022	35.98106	136.487274	https://www.google.co.jp/maps/@35.98106,136.487274,15z
Tateno	2110809	36.033329	140.116669	https://www.google.co.jp/maps/@36.033329,140.116669,15z
Yugawa	1848119	36.033329	138.233337	https://www.google.co.jp/maps/@36.033329,138.233337,15z
Shiogasaki	2111043	36.333328	140.550003	https://www.google.co.jp/maps/@36.333328,140.550003,15z
Aone	2114152	38.141941	140.533615	https://www.google.co.jp/maps/@38.141941,140.533615,15z
Ishiwaki	2112569	39.383331	140.050003	https://www.google.co.jp/maps/@39.383331,140.050003,15z
Hachinohe	2130204	40.505001	141.491943	https://www.google.co.jp/maps/@40.505001,141.491943,15z
Ryugasaki	2111258	35.900002	140.183334	https://www.google.co.jp/maps/@35.900002,140.183334,15z
Utsunomiya-shi	1849053	36.56583	139.883606	https://www.google.co.jp/maps/@36.56583,139.883606,15z
Ohama	1854579	34.5	136.833328	https://www.google.co.jp/maps/@34.5,136.833328,15z
Okinawa	1894616	26.335831	127.801392	https://www.google.co.jp/maps/@26.335831,127.801392,15z
Higashi-horidōri	1862818	37.916672	139.050003	https://www.google.co.jp/maps/@37.916672,139.050003,15z
Sakura	2111220	35.716671	140.233337	https://www.google.co.jp/maps/@35.716671,140.233337,15z
Miyazaki-shi	1856717	31.91111	131.423889	https://www.google.co.jp/maps/@31.91111,131.423889,15z
Kaigandōri	1860797	34.666672	133.916672	https://www.google.co.jp/maps/@34.666672,133.916672,15z
Shijōdōri	1852524	35.00378	135.763031	https://www.google.co.jp/maps/@35.00378,135.763031,15z
Fukushima-shi	2112923	37.75	140.467773	https://www.google.co.jp/maps/@37.75,140.467773,15z
Miyoshi	1856697	35.083328	137.066666	https://www.google.co.jp/maps/@35.083328,137.066666,15z
Motoichiba	1856524	35.150002	138.649994	https://www.google.co.jp/maps/@35.150002,138.649994,15z
Toyama-shi	1849876	36.695278	137.211395	https://www.google.co.jp/maps/@36.695278,137.211395,15z
Ogori	1854629	34.099998	131.399994	https://www.google.co.jp/maps/@34.099998,131.399994,15z
Mitsugarasuchō	1856900	34.666672	135.833328	https://www.google.co.jp/maps/@34.666672,135.833328,15z
Hiroshima-shi	1862415	34.396271	132.459366	https://www.google.co.jp/maps/@34.396271,132.459366,15z
Kami-nagarekawachō	1860483	34.400002	132.449997	https://www.google.co.jp/maps/@34.400002,132.449997,15z
Harisakichō	1863130	34.916672	137.149994	https://www.google.co.jp/maps/@34.916672,137.149994,15z
Nakamura	1855891	32.98333	132.933334	https://www.google.co.jp/maps/@32.98333,132.933334,15z
Gifu-shi	1863641	35.422909	136.760391	https://www.google.co.jp/maps/@35.422909,136.760391,15z
Honjōchō	1862197	35.416672	136.75	https://www.google.co.jp/maps/@35.416672,136.75,15z
Otsu-shi	1853574	35.00444	135.868332	https://www.google.co.jp/maps/@35.00444,135.868332,15z
Sapporo-shi	2128295	43.064171	141.346939	https://www.google.co.jp/maps/@43.064171,141.346939,15z
Aomori-shi	2130658	40.82444	140.740005	https://www.google.co.jp/maps/@40.82444,140.740005,15z
Matsue-shi	1857550	35.472221	133.050568	https://www.google.co.jp/maps/@35.472221,133.050568,15z
Miyake	1856789	34.583328	135.550003	https://www.google.co.jp/maps/@34.583328,135.550003,15z
Nagasaki-shi	1856177	32.74472	129.873611	https://www.google.co.jp/maps/@32.74472,129.873611,15z
Hiradogoyamachi	1862554	32.75	129.866669	https://www.google.co.jp/maps/@32.75,129.866669,15z
Takamatsu-shi	1851100	34.340279	134.043335	https://www.google.co.jp/maps/@34.340279,134.043335,15z
Obihiro	2128815	42.917221	143.204437	https://www.google.co.jp/maps/@42.917221,143.204437,15z
Nakano	1855863	36.75	138.366669	https://www.google.co.jp/maps/@36.75,138.366669,15z
Hanawadamachi	1863219	36.549999	139.883331	https://www.google.co.jp/maps/@36.549999,139.883331,15z
Nishikichō	1855265	35.650002	138.566666	https://www.google.co.jp/maps/@35.650002,138.566666,15z
Shibata	1852607	37.950001	139.333328	https://www.google.co.jp/maps/@37.950001,139.333328,15z
Sambashidōri	1853045	33.549999	133.550003	https://www.google.co.jp/maps/@33.549999,133.550003,15z
Masuda	1857594	34.666672	131.850006	https://www.google.co.jp/maps/@34.666672,131.850006,15z
Nakaichi	1855944	34.166672	131.483337	https://www.google.co.jp/maps/@34.166672,131.483337,15z
Arita	1865103	33.183331	129.899994	https://www.google.co.jp/maps/@33.183331,129.899994,15z
Furukawabashi	1863822	34.73333	135.600006	https://www.google.co.jp/maps/@34.73333,135.600006,15z
Tōbō	1850314	33.48333	129.933334	https://www.google.co.jp/maps/@33.48333,129.933334,15z
Minami-senjumachi	1857140	35.73333	139.816666	https://www.google.co.jp/maps/@35.73333,139.816666,15z
Sakaidechō	1853188	34.316669	133.850006	https://www.google.co.jp/maps/@34.316669,133.850006,15z
Ganiko	1863683	26.25601	127.75351	https://www.google.co.jp/maps/@26.25601,127.75351,15z
Tsuyama	1849519	35.049999	134	https://www.google.co.jp/maps/@35.049999,134,15z
Tokuyama	1850152	34.049999	131.816666	https://www.google.co.jp/maps/@34.049999,131.816666,15z
Uwajima	1926020	33.223751	132.560013	https://www.google.co.jp/maps/@33.223751,132.560013,15z
Kure	1858296	34.23333	132.566666	https://www.google.co.jp/maps/@34.23333,132.566666,15z
Nagahama	1856243	35.383331	136.266663	https://www.google.co.jp/maps/@35.383331,136.266663,15z
Komatsu	1926108	33.883331	133.116669	https://www.google.co.jp/maps/@33.883331,133.116669,15z
Nishikawa	2114009	38.926109	140.176392	https://www.google.co.jp/maps/@38.926109,140.176392,15z
Otaru	2128574	43.189442	141.002213	https://www.google.co.jp/maps/@43.189442,141.002213,15z
Toyooka	1849831	35.533329	134.833328	https://www.google.co.jp/maps/@35.533329,134.833328,15z
Kikuchi	1859492	32.98333	130.816666	https://www.google.co.jp/maps/@32.98333,130.816666,15z
Hikari	1896348	33.955002	131.949997	https://www.google.co.jp/maps/@33.955002,131.949997,15z
Kashiwazaki	1859908	37.366669	138.550003	https://www.google.co.jp/maps/@37.366669,138.550003,15z
Mombetsu	2129163	44.352501	143.352493	https://www.google.co.jp/maps/@44.352501,143.352493,15z
Tateyama	1850523	34.98333	139.866669	https://www.google.co.jp/maps/@34.98333,139.866669,15z
Yamae	1848706	33.466671	130.566666	https://www.google.co.jp/maps/@33.466671,130.566666,15z
Toriimatsu	1849977	35.23333	136.966675	https://www.google.co.jp/maps/@35.23333,136.966675,15z
Shibayama	2111127	35.683331	140.433334	https://www.google.co.jp/maps/@35.683331,140.433334,15z
Sekigahara	1852788	35.366669	136.466675	https://www.google.co.jp/maps/@35.366669,136.466675,15z
Kuradani	1858333	35.450001	135.333328	https://www.google.co.jp/maps/@35.450001,135.333328,15z
Kyōguchi	1857922	35.450001	135.333328	https://www.google.co.jp/maps/@35.450001,135.333328,15z
Enzan	1864180	35.700001	138.733337	https://www.google.co.jp/maps/@35.700001,138.733337,15z
Tsukaguchi	1849713	34.75	135.416672	https://www.google.co.jp/maps/@34.75,135.416672,15z
Togane	2110774	35.549999	140.366669	https://www.google.co.jp/maps/@35.549999,140.366669,15z
Hanyu	1863173	36.166672	139.533325	https://www.google.co.jp/maps/@36.166672,139.533325,15z
Tanabe	1850708	33.73333	135.366669	https://www.google.co.jp/maps/@33.73333,135.366669,15z
Hamanose	1863276	33.883331	135.149994	https://www.google.co.jp/maps/@33.883331,135.149994,15z
Ojiya	1854444	37.299999	138.800003	https://www.google.co.jp/maps/@37.299999,138.800003,15z
Iwakura	1861207	35.283329	136.866669	https://www.google.co.jp/maps/@35.283329,136.866669,15z
Minatomachi	1857089	33.033329	130.449997	https://www.google.co.jp/maps/@33.033329,130.449997,15z
Mifune	1857343	32.716671	130.800003	https://www.google.co.jp/maps/@32.716671,130.800003,15z
Otake	1853662	34.200001	132.216675	https://www.google.co.jp/maps/@34.200001,132.216675,15z
Kawai	1859716	34.23333	135.850006	https://www.google.co.jp/maps/@34.23333,135.850006,15z
Samani	2128333	42.121941	142.919174	https://www.google.co.jp/maps/@42.121941,142.919174,15z
Koshimizu	2129447	43.853329	144.459717	https://www.google.co.jp/maps/@43.853329,144.459717,15z
Kanegasaki	2112370	39.200001	141.116669	https://www.google.co.jp/maps/@39.200001,141.116669,15z
Nakagawa	1855987	35.066669	137.033325	https://www.google.co.jp/maps/@35.066669,137.033325,15z
Yokote	2110506	39.299999	140.566666	https://www.google.co.jp/maps/@39.299999,140.566666,15z
Nayoro	2128983	44.350559	142.457779	https://www.google.co.jp/maps/@44.350559,142.457779,15z
Murakami	1856434	38.23333	139.483337	https://www.google.co.jp/maps/@38.23333,139.483337,15z
Zaōmachi	1847996	37.450001	138.850006	https://www.google.co.jp/maps/@37.450001,138.850006,15z
Kameoka	1860635	35	135.583328	https://www.google.co.jp/maps/@35,135.583328,15z
Tamagawa	1850762	38.033329	139.666672	https://www.google.co.jp/maps/@38.033329,139.666672,15z
Kudoyama	1858492	34.283329	135.566666	https://www.google.co.jp/maps/@34.283329,135.566666,15z
芦屋	7302983	34.733921	135.30719	https://www.google.co.jp/maps/@34.733921,135.30719,15z
Iwami	1861202	34.783329	134.533325	https://www.google.co.jp/maps/@34.783329,134.533325,15z
Sabae	1853338	35.946468	136.184982	https://www.google.co.jp/maps/@35.946468,136.184982,15z
Takamori	1851079	32.816669	131.116669	https://www.google.co.jp/maps/@32.816669,131.116669,15z
Iijima	1861853	35.299999	137.883331	https://www.google.co.jp/maps/@35.299999,137.883331,15z
Hayakawa	1862998	35.450001	138.350006	https://www.google.co.jp/maps/@35.450001,138.350006,15z
Narusawa	1855585	35.75	138.733337	https://www.google.co.jp/maps/@35.75,138.733337,15z
Ogano	1854691	36.01667	139	https://www.google.co.jp/maps/@36.01667,139,15z
Kakuda	2112455	37.966671	140.783325	https://www.google.co.jp/maps/@37.966671,140.783325,15z
Uozu	1849237	36.799999	137.399994	https://www.google.co.jp/maps/@36.799999,137.399994,15z
Iiyama	1861838	36.849998	138.366669	https://www.google.co.jp/maps/@36.849998,138.366669,15z
Fukuyama	1863917	34.48333	133.366669	https://www.google.co.jp/maps/@34.48333,133.366669,15z
Takayama	1850892	36.133331	137.25	https://www.google.co.jp/maps/@36.133331,137.25,15z
Toyokawa	1849845	34.816669	137.399994	https://www.google.co.jp/maps/@34.816669,137.399994,15z
Saiki	1853237	32.950001	131.899994	https://www.google.co.jp/maps/@32.950001,131.899994,15z
Kahoku	2113698	38.51667	141.321671	https://www.google.co.jp/maps/@38.51667,141.321671,15z
Akashichō	1865485	35.666672	139.783325	https://www.google.co.jp/maps/@35.666672,139.783325,15z
Yūrakuchō	1848040	35.666672	139.766663	https://www.google.co.jp/maps/@35.666672,139.766663,15z
Kawasaki	6415253	35.65694	136.064438	https://www.google.co.jp/maps/@35.65694,136.064438,15z
Kurosawajiri	2112062	39.283329	141.116669	https://www.google.co.jp/maps/@39.283329,141.116669,15z
Nanukaichi	1855623	34.599998	133.466675	https://www.google.co.jp/maps/@34.599998,133.466675,15z
Akabira	2130705	43.551392	142.053055	https://www.google.co.jp/maps/@43.551392,142.053055,15z
Renjakuchō	1853412	36.383331	139.066666	https://www.google.co.jp/maps/@36.383331,139.066666,15z
Kariwa	1860039	37.429749	138.61879	https://www.google.co.jp/maps/@37.429749,138.61879,15z
Habu	1863475	33.816669	130.699997	https://www.google.co.jp/maps/@33.816669,130.699997,15z
Shobara	1851713	34.849998	133.016663	https://www.google.co.jp/maps/@34.849998,133.016663,15z
Mitake	1856938	35.416672	137.133331	https://www.google.co.jp/maps/@35.416672,137.133331,15z
Kusatsu	1858067	35.01667	135.966675	https://www.google.co.jp/maps/@35.01667,135.966675,15z
Fukuchiyama	1864009	35.299999	135.116669	https://www.google.co.jp/maps/@35.299999,135.116669,15z
Tarumizu	1850589	31.48333	130.699997	https://www.google.co.jp/maps/@31.48333,130.699997,15z
Oku-ikutahara	2128710	43.849998	143.516663	https://www.google.co.jp/maps/@43.849998,143.516663,15z
Akaigawa	2130700	43.083328	140.817215	https://www.google.co.jp/maps/@43.083328,140.817215,15z
Tokamachi	1850217	37.133331	138.766663	https://www.google.co.jp/maps/@37.133331,138.766663,15z
Nirasaki	1855363	35.700001	138.449997	https://www.google.co.jp/maps/@35.700001,138.449997,15z
Urakawa	2127586	42.15556	142.783615	https://www.google.co.jp/maps/@42.15556,142.783615,15z
Pippu	2128498	43.869438	142.473892	https://www.google.co.jp/maps/@43.869438,142.473892,15z
Shari	2128215	43.90556	144.659439	https://www.google.co.jp/maps/@43.90556,144.659439,15z
Sanjo	1852984	37.616669	138.949997	https://www.google.co.jp/maps/@37.616669,138.949997,15z
Obita	1854807	32.816669	129.883331	https://www.google.co.jp/maps/@32.816669,129.883331,15z
Toyokoro	2127652	42.816669	143.533325	https://www.google.co.jp/maps/@42.816669,143.533325,15z
Kuromatsunai	2129387	42.66806	140.306107	https://www.google.co.jp/maps/@42.66806,140.306107,15z
Uken	1849347	28.299999	129.233337	https://www.google.co.jp/maps/@28.299999,129.233337,15z
Engaru	2130387	44.054169	143.522217	https://www.google.co.jp/maps/@44.054169,143.522217,15z
Yakage	1848764	34.616669	133.583328	https://www.google.co.jp/maps/@34.616669,133.583328,15z
Furugen	1863837	26.368589	127.751106	https://www.google.co.jp/maps/@26.368589,127.751106,15z
Mugi	1856488	33.666672	134.416672	https://www.google.co.jp/maps/@33.666672,134.416672,15z
Embetsu	2130389	44.707218	141.788895	https://www.google.co.jp/maps/@44.707218,141.788895,15z
Shimokawa	2128139	44.28944	142.636383	https://www.google.co.jp/maps/@44.28944,142.636383,15z
Utazu	1849073	34.299999	133.816666	https://www.google.co.jp/maps/@34.299999,133.816666,15z
Funato	1863866	34.25	135.316666	https://www.google.co.jp/maps/@34.25,135.316666,15z
Anamizu	1865312	37.23333	136.899994	https://www.google.co.jp/maps/@37.23333,136.899994,15z
Yanohama	1848528	34.066669	136.199997	https://www.google.co.jp/maps/@34.066669,136.199997,15z
Awara	1864894	36.223091	136.192368	https://www.google.co.jp/maps/@36.223091,136.192368,15z
Ono	1854026	34.849998	134.933334	https://www.google.co.jp/maps/@34.849998,134.933334,15z
Obanazawa	2111559	38.603329	140.401947	https://www.google.co.jp/maps/@38.603329,140.401947,15z
Otawara	2111325	36.866669	140.033325	https://www.google.co.jp/maps/@36.866669,140.033325,15z
Yamaga	1848705	33.01667	130.683334	https://www.google.co.jp/maps/@33.01667,130.683334,15z
Iyo	1926006	33.751389	132.701385	https://www.google.co.jp/maps/@33.751389,132.701385,15z
Ozu	1926055	33.5	132.550003	https://www.google.co.jp/maps/@33.5,132.550003,15z
Higashikawa	2130106	44.23333	141.783325	https://www.google.co.jp/maps/@44.23333,141.783325,15z
Higashi-ōsaka	1862752	34.666672	135.583328	https://www.google.co.jp/maps/@34.666672,135.583328,15z
Utashinai	2127545	43.51667	142.050003	https://www.google.co.jp/maps/@43.51667,142.050003,15z
Shimizu	2128159	43.006111	142.88472	https://www.google.co.jp/maps/@43.006111,142.88472,15z
Tomamae	2127731	44.305279	141.654434	https://www.google.co.jp/maps/@44.305279,141.654434,15z
Wake	1848935	34.799999	134.133331	https://www.google.co.jp/maps/@34.799999,134.133331,15z
Urazoe	1894619	26.25444	127.70639	https://www.google.co.jp/maps/@26.25444,127.70639,15z
Kamoenai	2129696	43.138329	140.434433	https://www.google.co.jp/maps/@43.138329,140.434433,15z
Itano	1861305	34.01667	133.783325	https://www.google.co.jp/maps/@34.01667,133.783325,15z
Yoshii	1848194	36.25	138.983337	https://www.google.co.jp/maps/@36.25,138.983337,15z
Yashiro	1848498	34.916672	134.966675	https://www.google.co.jp/maps/@34.916672,134.966675,15z
Yaita	1848776	36.799999	139.933334	https://www.google.co.jp/maps/@36.799999,139.933334,15z
Waki	1848933	34.066669	134.149994	https://www.google.co.jp/maps/@34.066669,134.149994,15z
Ujiie	1849367	36.683331	139.966675	https://www.google.co.jp/maps/@36.683331,139.966675,15z
Ueki	1849424	32.900002	130.683334	https://www.google.co.jp/maps/@32.900002,130.683334,15z
Tsurusaki	1849561	33.240002	131.684433	https://www.google.co.jp/maps/@33.240002,131.684433,15z
Toyota	1849814	35.083328	137.149994	https://www.google.co.jp/maps/@35.083328,137.149994,15z
Toyoshina	1849817	36.299911	137.901077	https://www.google.co.jp/maps/@36.299911,137.901077,15z
Toyohama	1849850	34.700001	136.933334	https://www.google.co.jp/maps/@34.700001,136.933334,15z
Togitsu	1850269	32.833328	129.850006	https://www.google.co.jp/maps/@32.833328,129.850006,15z
Tenno	1850405	39.900002	139.966675	https://www.google.co.jp/maps/@39.900002,139.966675,15z
Tanushimaru	1850627	33.349998	130.683334	https://www.google.co.jp/maps/@33.349998,130.683334,15z
Tanuma	1850630	36.366669	139.583328	https://www.google.co.jp/maps/@36.366669,139.583328,15z
Tamano	1850742	34.48333	133.949997	https://www.google.co.jp/maps/@34.48333,133.949997,15z
Takeo	1850834	33.200001	130.016663	https://www.google.co.jp/maps/@33.200001,130.016663,15z
Takefu	1850872	35.903931	136.16687	https://www.google.co.jp/maps/@35.903931,136.16687,15z
Takarazuka	1851012	34.799358	135.356964	https://www.google.co.jp/maps/@34.799358,135.356964,15z
Bungo-Takada-shi	1851170	33.556702	131.445053	https://www.google.co.jp/maps/@33.556702,131.445053,15z
Sobue	1851622	35.25	136.716675	https://www.google.co.jp/maps/@35.25,136.716675,15z
Shobu	1851711	36.066669	139.600006	https://www.google.co.jp/maps/@36.066669,139.600006,15z
Shirahama	1851935	34.783329	134.716675	https://www.google.co.jp/maps/@34.783329,134.716675,15z
Shiozawa	1851952	37.033329	138.850006	https://www.google.co.jp/maps/@37.033329,138.850006,15z
Shingu	1852109	33.716671	130.433334	https://www.google.co.jp/maps/@33.716671,130.433334,15z
Shimonoseki	1852225	33.950001	130.949997	https://www.google.co.jp/maps/@33.950001,130.949997,15z
Shido	1852561	34.32333	134.173325	https://www.google.co.jp/maps/@34.32333,134.173325,15z
Setaka	1852673	33.150002	130.466675	https://www.google.co.jp/maps/@33.150002,130.466675,15z
Sakai	1853193	36.099998	139.800003	https://www.google.co.jp/maps/@36.099998,139.800003,15z
Saga-shi	1853303	33.249321	130.298798	https://www.google.co.jp/maps/@33.249321,130.298798,15z
Oyama	1853486	34.599998	138.216675	https://www.google.co.jp/maps/@34.599998,138.216675,15z
Owase	1853514	34.066669	136.199997	https://www.google.co.jp/maps/@34.066669,136.199997,15z
Omama	1854177	36.433331	139.283325	https://www.google.co.jp/maps/@36.433331,139.283325,15z
Okuchi	1854246	32.066669	130.616669	https://www.google.co.jp/maps/@32.066669,130.616669,15z
Nogata	1855066	33.73333	130.733337	https://www.google.co.jp/maps/@33.73333,130.733337,15z
Niihama	1855425	33.959332	133.316727	https://www.google.co.jp/maps/@33.959332,133.316727,15z
Nichinan	1855476	31.6	131.366669	https://www.google.co.jp/maps/@31.6,131.366669,15z
Nakatsu	1855757	33.59811	131.188293	https://www.google.co.jp/maps/@33.59811,131.188293,15z
Nakama	1855907	33.816669	130.699997	https://www.google.co.jp/maps/@33.816669,130.699997,15z
Muko	1856456	34.96545	135.704147	https://www.google.co.jp/maps/@34.96545,135.704147,15z
Muikamachi	1856476	37.066669	138.883331	https://www.google.co.jp/maps/@37.066669,138.883331,15z
Miyoshi	1856698	34.799999	132.850006	https://www.google.co.jp/maps/@34.799999,132.850006,15z
Miyada	1856828	33.716671	130.666672	https://www.google.co.jp/maps/@33.716671,130.666672,15z
Menuma	1857403	36.216671	139.383331	https://www.google.co.jp/maps/@36.216671,139.383331,15z
Matsuto	1857470	36.51667	136.566666	https://www.google.co.jp/maps/@36.51667,136.566666,15z
Maruoka	1857651	36.1534	136.270294	https://www.google.co.jp/maps/@36.1534,136.270294,15z
Maruko	1857659	36.316669	138.266663	https://www.google.co.jp/maps/@36.316669,138.266663,15z
Maizuru	1857766	35.450001	135.333328	https://www.google.co.jp/maps/@35.450001,135.333328,15z
Maebaru	1857844	33.549999	130.199997	https://www.google.co.jp/maps/@33.549999,130.199997,15z
Kuroda	1858249	35.349998	136.783325	https://www.google.co.jp/maps/@35.349998,136.783325,15z
Kurihashi	1858283	36.133331	139.699997	https://www.google.co.jp/maps/@36.133331,139.699997,15z
Kozakai-cho	1858591	34.799999	137.358887	https://www.google.co.jp/maps/@34.799999,137.358887,15z
Konan	1858836	35.33165	136.870422	https://www.google.co.jp/maps/@35.33165,136.870422,15z
Komoro	1858858	36.316669	138.433334	https://www.google.co.jp/maps/@36.316669,138.433334,15z
Kodama	1859113	36.183331	139.133331	https://www.google.co.jp/maps/@36.183331,139.133331,15z
Kitahama	1859335	35.166672	135.916672	https://www.google.co.jp/maps/@35.166672,135.916672,15z
Kisai	1859400	36.099998	139.583328	https://www.google.co.jp/maps/@36.099998,139.583328,15z
Kazo	1859586	36.116669	139.600006	https://www.google.co.jp/maps/@36.116669,139.600006,15z
Kawasaki	1859647	33.583328	130.833328	https://www.google.co.jp/maps/@33.583328,130.833328,15z
Kasugai	1859891	35.24762	136.97229	https://www.google.co.jp/maps/@35.24762,136.97229,15z
Kashihara-shi	1859951	34.508961	135.792892	https://www.google.co.jp/maps/@34.508961,135.792892,15z
Kasaoka	1859990	34.5	133.5	https://www.google.co.jp/maps/@34.5,133.5,15z
Kanie	1860191	35.133331	136.800003	https://www.google.co.jp/maps/@35.133331,136.800003,15z
Kaneko	1860211	36.400002	139	https://www.google.co.jp/maps/@36.400002,139,15z
Kanaya	1860256	34.816669	138.133331	https://www.google.co.jp/maps/@34.816669,138.133331,15z
Kamojima	1860321	34.066669	134.350006	https://www.google.co.jp/maps/@34.066669,134.350006,15z
Kamogata	1860335	34.533329	133.583328	https://www.google.co.jp/maps/@34.533329,133.583328,15z
Kameda	1860648	37.866669	139.116669	https://www.google.co.jp/maps/@37.866669,139.116669,15z
Kajiki	1860750	31.73333	130.666672	https://www.google.co.jp/maps/@31.73333,130.666672,15z
Iwata	1861171	34.700001	137.850006	https://www.google.co.jp/maps/@34.700001,137.850006,15z
Iwai	1861223	36.049999	139.899994	https://www.google.co.jp/maps/@36.049999,139.899994,15z
Iwade	1861244	34.25	135.316666	https://www.google.co.jp/maps/@34.25,135.316666,15z
Ishiki	1861383	34.799999	137.016663	https://www.google.co.jp/maps/@34.799999,137.016663,15z
Ishige	1861406	36.116669	139.966675	https://www.google.co.jp/maps/@36.116669,139.966675,15z
Ishigaki	1861416	24.34478	124.157173	https://www.google.co.jp/maps/@24.34478,124.157173,15z
Ikeda	1861795	34.822079	135.429794	https://www.google.co.jp/maps/@34.822079,135.429794,15z
Ikeda	1861799	34.01667	133.800003	https://www.google.co.jp/maps/@34.01667,133.800003,15z
Ijuin	1861825	31.616671	130.399994	https://www.google.co.jp/maps/@31.616671,130.399994,15z
Iga	1861901	34.768551	136.130127	https://www.google.co.jp/maps/@34.768551,136.130127,15z
Ibaraki	1862033	34.81641	135.568283	https://www.google.co.jp/maps/@34.81641,135.568283,15z
Ibara	1862034	34.599998	133.466675	https://www.google.co.jp/maps/@34.599998,133.466675,15z
Hotaka	1862098	36.3396	137.882538	https://www.google.co.jp/maps/@36.3396,137.882538,15z
Hisai	1862389	34.666672	136.466675	https://www.google.co.jp/maps/@34.666672,136.466675,15z
Hirata	1862471	35.433331	132.816666	https://www.google.co.jp/maps/@35.433331,132.816666,15z
Hino	1862601	35	136.25	https://www.google.co.jp/maps/@35,136.25,15z
Hekinan	1862912	34.883331	136.983337	https://www.google.co.jp/maps/@34.883331,136.983337,15z
Hamanoichi	1863279	31.716669	130.733337	https://www.google.co.jp/maps/@31.716669,130.733337,15z
Hamakita	1863293	34.799999	137.783325	https://www.google.co.jp/maps/@34.799999,137.783325,15z
Haibara	1863398	34.533329	135.949997	https://www.google.co.jp/maps/@34.533329,135.949997,15z
Omihachiman	1863451	35.128609	136.097595	https://www.google.co.jp/maps/@35.128609,136.097595,15z
Gobo	1863614	33.883331	135.149994	https://www.google.co.jp/maps/@33.883331,135.149994,15z
Ginowan	1863627	26.26265	127.761467	https://www.google.co.jp/maps/@26.26265,127.761467,15z
Fukura	1863953	34.25	134.716675	https://www.google.co.jp/maps/@34.25,134.716675,15z
Fukumitsu	1863973	36.549999	136.866669	https://www.google.co.jp/maps/@36.549999,136.866669,15z
Fukuma	1863978	33.76667	130.466675	https://www.google.co.jp/maps/@33.76667,130.466675,15z
Fukui-shi	1863985	36.06443	136.222565	https://www.google.co.jp/maps/@36.06443,136.222565,15z
Fukue	1863997	32.688061	128.841934	https://www.google.co.jp/maps/@32.688061,128.841934,15z
Fukiage	1864025	36.099998	139.449997	https://www.google.co.jp/maps/@36.099998,139.449997,15z
Fujioka	1864098	36.25	139.649994	https://www.google.co.jp/maps/@36.25,139.649994,15z
Fuji	1864134	35.166672	138.683334	https://www.google.co.jp/maps/@35.166672,138.683334,15z
Fuchu	1864155	34.566669	133.233337	https://www.google.co.jp/maps/@34.566669,133.233337,15z
Chino	1864557	35.9944	138.154282	https://www.google.co.jp/maps/@35.9944,138.154282,15z
Amagi	1865375	33.416672	130.649994	https://www.google.co.jp/maps/@33.416672,130.649994,15z
Aioi-shi	1865661	34.803612	134.468063	https://www.google.co.jp/maps/@34.803612,134.468063,15z
Nagato	1899102	34.383331	131.199997	https://www.google.co.jp/maps/@34.383331,131.199997,15z
Wakayama-shi	1926004	34.226109	135.167496	https://www.google.co.jp/maps/@34.226109,135.167496,15z
Yanagawa	2110538	37.849998	140.600006	https://www.google.co.jp/maps/@37.849998,140.600006,15z
Tsukuba	2110683	36.200001	140.100006	https://www.google.co.jp/maps/@36.200001,140.100006,15z
Tomobe	2110743	36.349998	140.300003	https://www.google.co.jp/maps/@36.349998,140.300003,15z
Takahagi	2110893	36.716671	140.716675	https://www.google.co.jp/maps/@36.716671,140.716675,15z
Omiya	2111425	36.549999	140.416672	https://www.google.co.jp/maps/@36.549999,140.416672,15z
Omigawa	2111429	35.849998	140.616669	https://www.google.co.jp/maps/@35.849998,140.616669,15z
Okunoya	2111441	36.283329	140.416672	https://www.google.co.jp/maps/@36.283329,140.416672,15z
Ohara	2111495	35.25	140.383331	https://www.google.co.jp/maps/@35.25,140.383331,15z
Motomiya	2111824	37.51667	140.399994	https://www.google.co.jp/maps/@37.51667,140.399994,15z
Mizusawa	2111859	39.133331	141.133331	https://www.google.co.jp/maps/@39.133331,141.133331,15z
Matsushima	2111964	38.373569	141.06105	https://www.google.co.jp/maps/@38.373569,141.06105,15z
Makabe	2112019	36.26667	140.100006	https://www.google.co.jp/maps/@36.26667,140.100006,15z
Kuroiso	2112077	36.966671	140.050003	https://www.google.co.jp/maps/@36.966671,140.050003,15z
Kogota	2112182	38.549999	141.050003	https://www.google.co.jp/maps/@38.549999,141.050003,15z
Kitakami	2112227	39.283329	141.116669	https://www.google.co.jp/maps/@39.283329,141.116669,15z
Kawaguchi	2112297	35.099998	140.100006	https://www.google.co.jp/maps/@35.099998,140.100006,15z
Katsuura	2112309	35.133331	140.300003	https://www.google.co.jp/maps/@35.133331,140.300003,15z
Katori-shi	2112319	35.897671	140.499435	https://www.google.co.jp/maps/@35.897671,140.499435,15z
Karasuyama	2112354	36.650002	140.149994	https://www.google.co.jp/maps/@36.650002,140.149994,15z
Iwase	2112521	36.349998	140.100006	https://www.google.co.jp/maps/@36.349998,140.100006,15z
Ishikawa	2112583	37.150002	140.449997	https://www.google.co.jp/maps/@37.150002,140.449997,15z
Inawashiro	2112615	37.566669	140.116669	https://www.google.co.jp/maps/@37.566669,140.116669,15z
Hobara	2112692	37.816669	140.550003	https://www.google.co.jp/maps/@37.816669,140.550003,15z
Funehiki	2112903	37.433331	140.583328	https://www.google.co.jp/maps/@37.433331,140.583328,15z
Fujishiro	2112940	35.916672	140.116669	https://www.google.co.jp/maps/@35.916672,140.116669,15z
Edosaki	2112963	35.950001	140.316666	https://www.google.co.jp/maps/@35.950001,140.316666,15z
Akita	2113126	39.716671	140.116669	https://www.google.co.jp/maps/@39.716671,140.116669,15z
Shimo-furano	2128147	43.349998	142.383331	https://www.google.co.jp/maps/@43.349998,142.383331,15z
Kamiiso	2129766	41.816669	140.649994	https://www.google.co.jp/maps/@41.816669,140.649994,15z
Minokamo	6822217	35.481991	137.021667	https://www.google.co.jp/maps/@35.481991,137.021667,15z
Kamigyo-ku	8125829	35.029541	135.756653	https://www.google.co.jp/maps/@35.029541,135.756653,15z
Kasugabaru	1859895	33.533329	130.466675	https://www.google.co.jp/maps/@33.533329,130.466675,15z
Kami-kōjaku	1860521	33.828579	130.760193	https://www.google.co.jp/maps/@33.828579,130.760193,15z
Mayanoheta	1857441	34.549999	136.516663	https://www.google.co.jp/maps/@34.549999,136.516663,15z
Katase	1859842	35.31694	139.474442	https://www.google.co.jp/maps/@35.31694,139.474442,15z
Yabuhana	1848848	35.408329	139.467224	https://www.google.co.jp/maps/@35.408329,139.467224,15z
Shōwajima	6419432	35.571671	139.75	https://www.google.co.jp/maps/@35.571671,139.75,15z
Shiomidai	1851992	35.583328	139.533325	https://www.google.co.jp/maps/@35.583328,139.533325,15z
Okura	1907174	35.584721	139.470276	https://www.google.co.jp/maps/@35.584721,139.470276,15z
Horinouchi	1862143	35.683331	139.649994	https://www.google.co.jp/maps/@35.683331,139.649994,15z
Yokota	1848305	35.75	139.383331	https://www.google.co.jp/maps/@35.75,139.383331,15z
Futto	2112874	35.966671	140.366669	https://www.google.co.jp/maps/@35.966671,140.366669,15z
Shimo-masukawa	2128131	41.816669	140.850006	https://www.google.co.jp/maps/@41.816669,140.850006,15z
Bannaguro	2130574	43.16861	141.321106	https://www.google.co.jp/maps/@43.16861,141.321106,15z
Tomioka	2127712	43.48333	142.183334	https://www.google.co.jp/maps/@43.48333,142.183334,15z
Nakaizumi	1855939	34.700001	137.850006	https://www.google.co.jp/maps/@34.700001,137.850006,15z
Rokujizō	1853398	34.933331	135.800003	https://www.google.co.jp/maps/@34.933331,135.800003,15z
Ashiharachō	1865006	34.666672	135.5	https://www.google.co.jp/maps/@34.666672,135.5,15z
Nihon’ōdōri	1855444	35.450001	139.649994	https://www.google.co.jp/maps/@35.450001,139.649994,15z
Bentenchō	1864771	34.683331	135.183334	https://www.google.co.jp/maps/@34.683331,135.183334,15z
Setagaya	1852676	35.633331	139.649994	https://www.google.co.jp/maps/@35.633331,139.649994,15z
Tenjinchō	1850418	33.583328	130.399994	https://www.google.co.jp/maps/@33.583328,130.399994,15z
Aoichō	1865264	35.166672	136.916672	https://www.google.co.jp/maps/@35.166672,136.916672,15z
Okinawa-ken	1854345	25.772249	126.668709	https://www.google.co.jp/maps/@25.772249,126.668709,15z
Niigata-shi	1855431	37.902222	139.023605	https://www.google.co.jp/maps/@37.902222,139.023605,15z
Nagano-shi	1856215	36.65139	138.181107	https://www.google.co.jp/maps/@36.65139,138.181107,15z
Nishigochō	1855309	36.650002	138.183334	https://www.google.co.jp/maps/@36.650002,138.183334,15z
Kyoto	1857910	35.021069	135.753845	https://www.google.co.jp/maps/@35.021069,135.753845,15z
Uwamachi	2110617	37.75	140.466675	https://www.google.co.jp/maps/@37.75,140.466675,15z
Ohtemachi	1853620	36.067348	136.220169	https://www.google.co.jp/maps/@36.067348,136.220169,15z
Harigayachō	1863140	35.866669	139.633331	https://www.google.co.jp/maps/@35.866669,139.633331,15z
Tokushima-shi	1850158	34.06583	134.559433	https://www.google.co.jp/maps/@34.06583,134.559433,15z
Mandaimachi	1857689	34.066669	134.566666	https://www.google.co.jp/maps/@34.066669,134.566666,15z
Toyohira	2127660	43.049999	141.366669	https://www.google.co.jp/maps/@43.049999,141.366669,15z
Sakurakabu	1853058	35.450001	139.466675	https://www.google.co.jp/maps/@35.450001,139.466675,15z
Kakogawa	1860704	34.76667	134.850006	https://www.google.co.jp/maps/@34.76667,134.850006,15z
Uchimaru	2110657	39.700001	141.149994	https://www.google.co.jp/maps/@39.700001,141.149994,15z
Kasuga	1859900	33.033329	130.050003	https://www.google.co.jp/maps/@33.033329,130.050003,15z
Toyohashi	1849846	34.76667	137.383331	https://www.google.co.jp/maps/@34.76667,137.383331,15z
Yasu	1848489	35.068008	136.02327	https://www.google.co.jp/maps/@35.068008,136.02327,15z
Ōgimachiya	1854642	35.833328	139.399994	https://www.google.co.jp/maps/@35.833328,139.399994,15z
Fusa	2112892	35.849998	140.133331	https://www.google.co.jp/maps/@35.849998,140.133331,15z
Sendai-shi	2111149	38.26889	140.871933	https://www.google.co.jp/maps/@38.26889,140.871933,15z
Shimizu-kōji	2111106	38.25	140.883331	https://www.google.co.jp/maps/@38.25,140.883331,15z
Yokkaichi	1848373	34.966671	136.616669	https://www.google.co.jp/maps/@34.966671,136.616669,15z
Tenjimmae	1850420	34.333328	134.050003	https://www.google.co.jp/maps/@34.333328,134.050003,15z
Hakodate	2130188	41.775829	140.736664	https://www.google.co.jp/maps/@41.775829,140.736664,15z
Seki	1852795	34.849998	136.399994	https://www.google.co.jp/maps/@34.849998,136.399994,15z
Kochi-shi	1859146	33.559719	133.531113	https://www.google.co.jp/maps/@33.559719,133.531113,15z
Bakurochō	1864821	36.566669	136.649994	https://www.google.co.jp/maps/@36.566669,136.649994,15z
Kamearimachi	1860649	35.75	139.850006	https://www.google.co.jp/maps/@35.75,139.850006,15z
Ueda	1849429	36.400002	138.266663	https://www.google.co.jp/maps/@36.400002,138.266663,15z
Toba	1850345	34.48333	136.850006	https://www.google.co.jp/maps/@34.48333,136.850006,15z
Komatsu	1858910	36.40263	136.450882	https://www.google.co.jp/maps/@36.40263,136.450882,15z
Yatsushiro	1848445	32.5	130.600006	https://www.google.co.jp/maps/@32.5,130.600006,15z
Yuasa	1848131	34.033329	135.183334	https://www.google.co.jp/maps/@34.033329,135.183334,15z
Nishihara	1855342	26.18417	127.755829	https://www.google.co.jp/maps/@26.18417,127.755829,15z
Shimonita	1852237	36.216671	138.783325	https://www.google.co.jp/maps/@36.216671,138.783325,15z
Yamakita	1848667	35.35667	139.073334	https://www.google.co.jp/maps/@35.35667,139.073334,15z
Date	2130421	42.46806	140.868057	https://www.google.co.jp/maps/@42.46806,140.868057,15z
Mannen	1926102	33.707279	132.792694	https://www.google.co.jp/maps/@33.707279,132.792694,15z
Yamada	2110560	39.466671	141.949997	https://www.google.co.jp/maps/@39.466671,141.949997,15z
Hōryūji	1862136	34.616669	135.733337	https://www.google.co.jp/maps/@34.616669,135.733337,15z
Taketomi	1850822	24.330669	124.08506	https://www.google.co.jp/maps/@24.330669,124.08506,15z
Shimoda	1852357	34.666672	138.949997	https://www.google.co.jp/maps/@34.666672,138.949997,15z
Miyako	2111884	39.636669	141.952499	https://www.google.co.jp/maps/@39.636669,141.952499,15z
Wakasa	1848949	35.333328	134.399994	https://www.google.co.jp/maps/@35.333328,134.399994,15z
Hōjō	1862291	34.98333	139.866669	https://www.google.co.jp/maps/@34.98333,139.866669,15z
Tsutsui	1926024	33.788849	132.705017	https://www.google.co.jp/maps/@33.788849,132.705017,15z
Isomura	2112562	35.083328	140.100006	https://www.google.co.jp/maps/@35.083328,140.100006,15z
Nikko	1855395	36.75	139.616669	https://www.google.co.jp/maps/@36.75,139.616669,15z
Takata	1850943	35.433331	136.233337	https://www.google.co.jp/maps/@35.433331,136.233337,15z
Yatsuzawa	1848440	35.616669	139.116669	https://www.google.co.jp/maps/@35.616669,139.116669,15z
Motomachi	1856521	33.73333	135.366669	https://www.google.co.jp/maps/@33.73333,135.366669,15z
Takasago	1851009	34.75	134.800003	https://www.google.co.jp/maps/@34.75,134.800003,15z
Hamada	1863310	34.883331	132.083328	https://www.google.co.jp/maps/@34.883331,132.083328,15z
Mita	1856950	35.650002	139.733337	https://www.google.co.jp/maps/@35.650002,139.733337,15z
Marugame	1857665	34.283329	133.783325	https://www.google.co.jp/maps/@34.283329,133.783325,15z
Numata	1854905	36.633331	139.050003	https://www.google.co.jp/maps/@36.633331,139.050003,15z
Asahi	6416230	34.06432	133.000488	https://www.google.co.jp/maps/@34.06432,133.000488,15z
Miyamaechō	1856764	36.316669	139.199997	https://www.google.co.jp/maps/@36.316669,139.199997,15z
Fukagawa	2130332	43.708061	142.039169	https://www.google.co.jp/maps/@43.708061,142.039169,15z
Nagaoka	1856199	37.450001	138.850006	https://www.google.co.jp/maps/@37.450001,138.850006,15z
Oshi	1853807	36.133331	139.449997	https://www.google.co.jp/maps/@36.133331,139.449997,15z
Akkeshi	2130677	43.035561	144.852493	https://www.google.co.jp/maps/@43.035561,144.852493,15z
Chizu	1864523	35.26667	134.233337	https://www.google.co.jp/maps/@35.26667,134.233337,15z
Sagae	2111248	38.372501	140.272507	https://www.google.co.jp/maps/@38.372501,140.272507,15z
Takaharu	1851141	31.91667	131.016663	https://www.google.co.jp/maps/@31.91667,131.016663,15z
Yabutani	1848841	34.799999	134.466675	https://www.google.co.jp/maps/@34.799999,134.466675,15z
Yusuhara	1848028	33.383331	132.916672	https://www.google.co.jp/maps/@33.383331,132.916672,15z
Kōtari	1858681	34.916672	135.699997	https://www.google.co.jp/maps/@34.916672,135.699997,15z
Hokota	2112688	36.150002	140.516663	https://www.google.co.jp/maps/@36.150002,140.516663,15z
Takado	2110901	36.716671	140.716675	https://www.google.co.jp/maps/@36.716671,140.716675,15z
Hakui	1863341	36.883331	136.783325	https://www.google.co.jp/maps/@36.883331,136.783325,15z
Karumai	2129646	40.321388	141.458328	https://www.google.co.jp/maps/@40.321388,141.458328,15z
Kashiwara	1859913	34.450001	135.766663	https://www.google.co.jp/maps/@34.450001,135.766663,15z
Izuhara	1861116	34.201389	129.287216	https://www.google.co.jp/maps/@34.201389,129.287216,15z
Todaka	1850302	31.6	131.366669	https://www.google.co.jp/maps/@31.6,131.366669,15z
Nemuro	2128975	43.323608	145.574997	https://www.google.co.jp/maps/@43.323608,145.574997,15z
Gojōnome	2112860	39.933331	140.116669	https://www.google.co.jp/maps/@39.933331,140.116669,15z
Soeda	1851617	33.566669	130.866669	https://www.google.co.jp/maps/@33.566669,130.866669,15z
Piuka	2128490	44.475281	142.343063	https://www.google.co.jp/maps/@44.475281,142.343063,15z
Shiogama	2111049	38.316669	141.033325	https://www.google.co.jp/maps/@38.316669,141.033325,15z
Moseushi	2129132	43.687778	141.959167	https://www.google.co.jp/maps/@43.687778,141.959167,15z
Biei	2130531	43.584438	142.459717	https://www.google.co.jp/maps/@43.584438,142.459717,15z
Bekkai	2130567	43.375832	145.286667	https://www.google.co.jp/maps/@43.375832,145.286667,15z
Chōnan	2113001	35.400002	140.233337	https://www.google.co.jp/maps/@35.400002,140.233337,15z
Namie	2111704	37.48333	141	https://www.google.co.jp/maps/@37.48333,141,15z
Fukaya	1864031	36.200001	139.283325	https://www.google.co.jp/maps/@36.200001,139.283325,15z
Wajima	1848976	37.400002	136.899994	https://www.google.co.jp/maps/@37.400002,136.899994,15z
Zamami	1848002	26.224171	127.301109	https://www.google.co.jp/maps/@26.224171,127.301109,15z
Kanonji	1860122	34.116669	133.649994	https://www.google.co.jp/maps/@34.116669,133.649994,15z
Sunagawa	2127955	43.486389	141.905563	https://www.google.co.jp/maps/@43.486389,141.905563,15z
Taga	1851279	35.226341	136.286255	https://www.google.co.jp/maps/@35.226341,136.286255,15z
Hirokawa	1862444	33.116669	130.966675	https://www.google.co.jp/maps/@33.116669,130.966675,15z
Yuni	2127398	43.007221	141.784439	https://www.google.co.jp/maps/@43.007221,141.784439,15z
Kawatana	1859619	33.066669	129.866669	https://www.google.co.jp/maps/@33.066669,129.866669,15z
Hioki	1862569	31.58333	130.350006	https://www.google.co.jp/maps/@31.58333,130.350006,15z
Urahoro	2127588	42.80611	143.654724	https://www.google.co.jp/maps/@42.80611,143.654724,15z
Tōji	1850233	32.400002	130.833328	https://www.google.co.jp/maps/@32.400002,130.833328,15z
Oda	1854774	35.183331	132.5	https://www.google.co.jp/maps/@35.183331,132.5,15z
Takanabe	1851068	32.133331	131.5	https://www.google.co.jp/maps/@32.133331,131.5,15z
Murotsu	1856386	33.283329	134.149994	https://www.google.co.jp/maps/@33.283329,134.149994,15z
Yabu	1848852	35.383331	134.816666	https://www.google.co.jp/maps/@35.383331,134.816666,15z
Kōchi	1859143	34.700001	138.933334	https://www.google.co.jp/maps/@34.700001,138.933334,15z
Ito	1861290	34.966671	139.083328	https://www.google.co.jp/maps/@34.966671,139.083328,15z
Yamanobe	2114134	38.291111	140.266663	https://www.google.co.jp/maps/@38.291111,140.266663,15z
Sukumo	1851462	32.933331	132.733337	https://www.google.co.jp/maps/@32.933331,132.733337,15z
Tōkaichi	1850223	34.799999	132.850006	https://www.google.co.jp/maps/@34.799999,132.850006,15z
Kamigōri	1860588	34.866669	134.366669	https://www.google.co.jp/maps/@34.866669,134.366669,15z
Itayanagi	2129884	40.690281	140.45694	https://www.google.co.jp/maps/@40.690281,140.45694,15z
Yoshida	1848210	37.683331	138.883331	https://www.google.co.jp/maps/@37.683331,138.883331,15z
Yatsuo	1848447	36.566669	137.133331	https://www.google.co.jp/maps/@36.566669,137.133331,15z
Yamasaki	1848633	35	134.550003	https://www.google.co.jp/maps/@35,134.550003,15z
Ueno	1849414	34.75	136.133331	https://www.google.co.jp/maps/@34.75,136.133331,15z
Tsuma	1849647	32.099998	131.399994	https://www.google.co.jp/maps/@32.099998,131.399994,15z
Toyota-shi	1849809	35.141178	137.301498	https://www.google.co.jp/maps/@35.141178,137.301498,15z
Tochio	1850307	37.466671	139	https://www.google.co.jp/maps/@37.466671,139,15z
Tanabe	1850707	34.816669	135.766663	https://www.google.co.jp/maps/@34.816669,135.766663,15z
Suibara	1851494	37.833328	139.233337	https://www.google.co.jp/maps/@37.833328,139.233337,15z
Shirone	1851813	37.76667	139.016663	https://www.google.co.jp/maps/@37.76667,139.016663,15z
Shimminatocho	1852383	34.183331	135.199997	https://www.google.co.jp/maps/@34.183331,135.199997,15z
Shimminato	1852385	36.783329	137.066666	https://www.google.co.jp/maps/@36.783329,137.066666,15z
Sagara	1853280	34.683331	138.199997	https://www.google.co.jp/maps/@34.683331,138.199997,15z
Ryuo	1853354	35.650002	138.5	https://www.google.co.jp/maps/@35.650002,138.5,15z
Ryotsu	1853371	38.083328	138.433334	https://www.google.co.jp/maps/@38.083328,138.433334,15z
Niitsu	1855410	37.799999	139.116669	https://www.google.co.jp/maps/@37.799999,139.116669,15z
Naze	1855540	28.366671	129.483337	https://www.google.co.jp/maps/@28.366671,129.483337,15z
Namerikawa	1855694	36.76667	137.333328	https://www.google.co.jp/maps/@36.76667,137.333328,15z
Muroto	1856392	33.283329	134.149994	https://www.google.co.jp/maps/@33.283329,134.149994,15z
Muramatsu	1856426	37.683331	139.183334	https://www.google.co.jp/maps/@37.683331,139.183334,15z
Minakuchi	1857209	34.966671	136.166672	https://www.google.co.jp/maps/@34.966671,136.166672,15z
Mikuni	1857260	36.21706	136.151855	https://www.google.co.jp/maps/@36.21706,136.151855,15z
Matsubase	1857560	32.650002	130.666672	https://www.google.co.jp/maps/@32.650002,130.666672,15z
Maki	1857751	37.75	138.883331	https://www.google.co.jp/maps/@37.75,138.883331,15z
Kosugi	1858695	36.716671	137.100006	https://www.google.co.jp/maps/@36.716671,137.100006,15z
Kaseda	1859964	31.41667	130.316666	https://www.google.co.jp/maps/@31.41667,130.316666,15z
Kannabe	1860176	34.533329	133.383331	https://www.google.co.jp/maps/@34.533329,133.383331,15z
Itoman	1861280	26.12472	127.669441	https://www.google.co.jp/maps/@26.12472,127.669441,15z
Itoigawa	1861285	37.033329	137.850006	https://www.google.co.jp/maps/@37.033329,137.850006,15z
Ishikawa	1861393	26.42333	127.821388	https://www.google.co.jp/maps/@26.42333,127.821388,15z
Innoshima	1861586	34.283329	133.183334	https://www.google.co.jp/maps/@34.283329,133.183334,15z
Imaichi	1861699	36.716671	139.683334	https://www.google.co.jp/maps/@36.716671,139.683334,15z
Arai	1865207	37.01667	138.25	https://www.google.co.jp/maps/@37.01667,138.25,15z
Masaki-cho	1926101	33.787571	132.711243	https://www.google.co.jp/maps/@33.787571,132.711243,15z
Kawanoe	1926116	34.01667	133.566666	https://www.google.co.jp/maps/@34.01667,133.566666,15z
Hojo	1926142	33.976608	132.777664	https://www.google.co.jp/maps/@33.976608,132.777664,15z
Yamoto	2110541	38.42738	141.214874	https://www.google.co.jp/maps/@38.42738,141.214874,15z
Omagari	2111435	39.450001	140.483337	https://www.google.co.jp/maps/@39.450001,140.483337,15z
Oami	2111568	35.51667	140.316666	https://www.google.co.jp/maps/@35.51667,140.316666,15z
Naruto	2111677	35.599998	140.416672	https://www.google.co.jp/maps/@35.599998,140.416672,15z
Furukawa	2112899	38.571671	140.955566	https://www.google.co.jp/maps/@38.571671,140.955566,15z
Akita Shi	2113719	39.71806	140.103333	https://www.google.co.jp/maps/@39.71806,140.103333,15z
Takanosu	2127910	40.221939	140.369446	https://www.google.co.jp/maps/@40.221939,140.369446,15z
Makubetsu	2129324	45.371391	141.821106	https://www.google.co.jp/maps/@45.371391,141.821106,15z
Joetsu	6825489	37.148281	138.23642	https://www.google.co.jp/maps/@37.148281,138.23642,15z
Kunisaki-shi	7279571	33.56543	131.731567	https://www.google.co.jp/maps/@33.56543,131.731567,15z
Fujikawaguchiko	7281819	35.48933	138.688324	https://www.google.co.jp/maps/@35.48933,138.688324,15z
Kyōto-shi	1857906	35.107368	135.724014	https://www.google.co.jp/maps/@35.107368,135.724014,15z
Buzen-shi	1864660	33.567429	131.085785	https://www.google.co.jp/maps/@33.567429,131.085785,15z
Akita-ken	2113124	39.75251	140.40538	https://www.google.co.jp/maps/@39.75251,140.40538,15z
Aomori-ken	2130656	40.7831	140.828278	https://www.google.co.jp/maps/@40.7831,140.828278,15z
Kamikitakōzan	2129752	40.736111	140.956116	https://www.google.co.jp/maps/@40.736111,140.956116,15z
Gifu-ken	1863640	35.78091	137.053986	https://www.google.co.jp/maps/@35.78091,137.053986,15z
Sekimachi	1852775	35.48333	136.916672	https://www.google.co.jp/maps/@35.48333,136.916672,15z
Gunma-ken	1863501	36.507469	138.982346	https://www.google.co.jp/maps/@36.507469,138.982346,15z
Komagata	1858937	36.349998	139.133331	https://www.google.co.jp/maps/@36.349998,139.133331,15z
Hiroshima-ken	1862413	34.606731	132.785431	https://www.google.co.jp/maps/@34.606731,132.785431,15z
Higashi-Hiroshima	6822110	34.434841	132.740616	https://www.google.co.jp/maps/@34.434841,132.740616,15z
Fukui-ken	1863983	35.850101	136.225174	https://www.google.co.jp/maps/@35.850101,136.225174,15z
Yoshie	1848200	35.987041	136.172287	https://www.google.co.jp/maps/@35.987041,136.172287,15z
Fukuoka-ken	1863958	33.52813	130.664719	https://www.google.co.jp/maps/@33.52813,130.664719,15z
Sasaguri	1852915	33.616669	130.533325	https://www.google.co.jp/maps/@33.616669,130.533325,15z
Ishioka	2112571	36.183331	140.266663	https://www.google.co.jp/maps/@36.183331,140.266663,15z
Iwate-ken	2112518	39.596008	141.359711	https://www.google.co.jp/maps/@39.596008,141.359711,15z
Ōhasama	2111488	39.466671	141.283325	https://www.google.co.jp/maps/@39.466671,141.283325,15z
Kagawa-ken	1860834	34.247169	133.994705	https://www.google.co.jp/maps/@34.247169,133.994705,15z
Kagoshima-ken	1860825	31.032249	130.432922	https://www.google.co.jp/maps/@31.032249,130.432922,15z
Sesekushi	1852685	31.41667	130.516663	https://www.google.co.jp/maps/@31.41667,130.516663,15z
Kanagawa-ken	1860291	35.417461	139.338852	https://www.google.co.jp/maps/@35.417461,139.338852,15z
Shimbashichō	1852427	35.433331	139.516663	https://www.google.co.jp/maps/@35.433331,139.516663,15z
Kyōto-fu	1857907	35.254318	135.441177	https://www.google.co.jp/maps/@35.254318,135.441177,15z
Shimoku	1852272	35.099998	135.600006	https://www.google.co.jp/maps/@35.099998,135.600006,15z
Kōchi-ken	1859133	33.428009	133.364014	https://www.google.co.jp/maps/@33.428009,133.364014,15z
Usa	1849168	33.450001	133.449997	https://www.google.co.jp/maps/@33.450001,133.449997,15z
Mie-ken	1857352	34.521229	136.382965	https://www.google.co.jp/maps/@34.521229,136.382965,15z
Tsu-shi	1849796	34.730282	136.508606	https://www.google.co.jp/maps/@34.730282,136.508606,15z
Miyagi-ken	2111888	38.449379	140.926239	https://www.google.co.jp/maps/@38.449379,140.926239,15z
Rifu	2111277	38.323608	140.974442	https://www.google.co.jp/maps/@38.323608,140.974442,15z
Miyazaki-ken	1856710	32.198071	131.297623	https://www.google.co.jp/maps/@32.198071,131.297623,15z
Sammyō	1853024	32	131.350006	https://www.google.co.jp/maps/@32,131.350006,15z
Nagano-ken	1856210	36.13464	138.040771	https://www.google.co.jp/maps/@36.13464,138.040771,15z
Suguri	1851497	36.26667	138.149994	https://www.google.co.jp/maps/@36.26667,138.149994,15z
Nagasaki-ken	1856156	33.23344	129.611084	https://www.google.co.jp/maps/@33.23344,129.611084,15z
Motogoe	1856531	32.966671	129.800003	https://www.google.co.jp/maps/@32.966671,129.800003,15z
Nara-ken	1855608	34.685249	135.832886	https://www.google.co.jp/maps/@34.685249,135.832886,15z
Hashio	1863077	34.566669	135.75	https://www.google.co.jp/maps/@34.566669,135.75,15z
Niigata-ken	1855429	37.52343	138.91748	https://www.google.co.jp/maps/@37.52343,138.91748,15z
Jizōdō	1861006	37.616669	138.850006	https://www.google.co.jp/maps/@37.616669,138.850006,15z
Okayama-ken	1854381	34.902039	133.810181	https://www.google.co.jp/maps/@34.902039,133.810181,15z
Itakura	1861314	34.666672	133.833328	https://www.google.co.jp/maps/@34.666672,133.833328,15z
Saga-ken	1853299	33.28904	130.114914	https://www.google.co.jp/maps/@33.28904,130.114914,15z
Ogi	1854656	33.287781	130.201111	https://www.google.co.jp/maps/@33.287781,130.201111,15z
Saitama-ken	1853226	35.857208	139.649033	https://www.google.co.jp/maps/@35.857208,139.649033,15z
Hirakata	1862539	35.933331	139.550003	https://www.google.co.jp/maps/@35.933331,139.550003,15z
Shiga-ken	1852553	35.219391	136.13652	https://www.google.co.jp/maps/@35.219391,136.13652,15z
Egashira	1864237	35.116669	136.050003	https://www.google.co.jp/maps/@35.116669,136.050003,15z
Shimane-ken	1852442	35.076931	132.561111	https://www.google.co.jp/maps/@35.076931,132.561111,15z
Shimo-satsume	1852201	35.216671	132.649994	https://www.google.co.jp/maps/@35.216671,132.649994,15z
Shizuoka-ken	1851715	35.025219	138.325424	https://www.google.co.jp/maps/@35.025219,138.325424,15z
Hanazawa	1863218	34.900002	138.333328	https://www.google.co.jp/maps/@34.900002,138.333328,15z
Mihama	6419747	35.633331	140.059998	https://www.google.co.jp/maps/@35.633331,140.059998,15z
Inage	6419751	35.633331	140.083328	https://www.google.co.jp/maps/@35.633331,140.083328,15z
Tokushima-ken	1850157	33.921761	134.236816	https://www.google.co.jp/maps/@33.921761,134.236816,15z
Ichinomiya	1861950	34.033329	134.466675	https://www.google.co.jp/maps/@34.033329,134.466675,15z
Tottori-ken	1849890	35.367859	133.850815	https://www.google.co.jp/maps/@35.367859,133.850815,15z
Yura	1848049	35.48333	133.75	https://www.google.co.jp/maps/@35.48333,133.75,15z
Toyama-ken	1849872	36.639259	137.265137	https://www.google.co.jp/maps/@36.639259,137.265137,15z
Kitadai	1859363	36.716671	137.166672	https://www.google.co.jp/maps/@36.716671,137.166672,15z
Wakayama-ken	1848938	33.914581	135.511124	https://www.google.co.jp/maps/@33.914581,135.511124,15z
Iwanogawa	1861189	34.049999	135.333328	https://www.google.co.jp/maps/@34.049999,135.333328,15z
Ōita-ken	1854484	33.19899	131.433533	https://www.google.co.jp/maps/@33.19899,131.433533,15z
Beppu	1864750	33.273609	131.491943	https://www.google.co.jp/maps/@33.273609,131.491943,15z
tsuruhashi	7303469	34.665051	135.53009	https://www.google.co.jp/maps/@34.665051,135.53009,15z
Kanoya	1860112	31.383329	130.850006	https://www.google.co.jp/maps/@31.383329,130.850006,15z
Kumamoto-ken	1858419	32.620491	130.754303	https://www.google.co.jp/maps/@32.620491,130.754303,15z
Sakanashi	1853150	32.933331	131.133331	https://www.google.co.jp/maps/@32.933331,131.133331,15z
Mie	1857357	32.966671	131.583328	https://www.google.co.jp/maps/@32.966671,131.583328,15z
Shirahama	1851937	33.01667	129.733337	https://www.google.co.jp/maps/@33.01667,129.733337,15z
Higashi-suminoe	1862732	33.200001	130.199997	https://www.google.co.jp/maps/@33.200001,130.199997,15z
Hainuzuka	1863385	33.200001	130.5	https://www.google.co.jp/maps/@33.200001,130.5,15z
Mirukashi	1898149	33.438332	129.938324	https://www.google.co.jp/maps/@33.438332,129.938324,15z
Hikosan	1862633	33.48333	130.899994	https://www.google.co.jp/maps/@33.48333,130.899994,15z
Kasuga	6822147	33.526112	130.48703	https://www.google.co.jp/maps/@33.526112,130.48703,15z
Shimo-shirōzu	1852195	33.51667	130.433334	https://www.google.co.jp/maps/@33.51667,130.433334,15z
Chikushino-shi	1864572	33.496311	130.515594	https://www.google.co.jp/maps/@33.496311,130.515594,15z
Umi	1849299	33.566669	130.5	https://www.google.co.jp/maps/@33.566669,130.5,15z
Yukuhashi	1848087	33.728729	130.983002	https://www.google.co.jp/maps/@33.728729,130.983002,15z
Naka-gōchi	1855973	34.01667	131.333328	https://www.google.co.jp/maps/@34.01667,131.333328,15z
Kuga	1858486	34.083328	132.083328	https://www.google.co.jp/maps/@34.083328,132.083328,15z
Kotohira	1858667	34.183331	133.816666	https://www.google.co.jp/maps/@34.183331,133.816666,15z
Kashiwano	1859914	34.316669	136.399994	https://www.google.co.jp/maps/@34.316669,136.399994,15z
Sumoto	1851426	34.349998	134.899994	https://www.google.co.jp/maps/@34.349998,134.899994,15z
Jigozen	1861049	34.333328	132.316666	https://www.google.co.jp/maps/@34.333328,132.316666,15z
Ōsaka-fu	1853904	34.68631	135.519684	https://www.google.co.jp/maps/@34.68631,135.519684,15z
Ō-kubo	1854255	34.400002	135.350006	https://www.google.co.jp/maps/@34.400002,135.350006,15z
Mihara	1857334	34.400002	133.083328	https://www.google.co.jp/maps/@34.400002,133.083328,15z
Higashimachi	1862782	34.400002	133.083328	https://www.google.co.jp/maps/@34.400002,133.083328,15z
Yobimatsu	1848409	34.5	133.766663	https://www.google.co.jp/maps/@34.5,133.766663,15z
Tondabayashi	1850034	34.5	135.600006	https://www.google.co.jp/maps/@34.5,135.600006,15z
Ikeda	1861797	34.73333	137.816666	https://www.google.co.jp/maps/@34.73333,137.816666,15z
Minagi	1857213	34.716671	133.649994	https://www.google.co.jp/maps/@34.716671,133.649994,15z
御影	7302982	34.724258	135.252426	https://www.google.co.jp/maps/@34.724258,135.252426,15z
Kanagawa	1860293	34.799999	133.933334	https://www.google.co.jp/maps/@34.799999,133.933334,15z
Jinai	1861036	34.783329	135.533325	https://www.google.co.jp/maps/@34.783329,135.533325,15z
Nashizukuri	1855566	34.783329	135.666672	https://www.google.co.jp/maps/@34.783329,135.666672,15z
Goyuchō	1863516	34.833328	137.316666	https://www.google.co.jp/maps/@34.833328,137.316666,15z
Nakatsu	1855756	34.799999	137.716675	https://www.google.co.jp/maps/@34.799999,137.716675,15z
Warabo	1848899	34.916672	139	https://www.google.co.jp/maps/@34.916672,139,15z
Chiba-ken	2113014	35.605061	140.123337	https://www.google.co.jp/maps/@35.605061,140.123337,15z
Nemoto	1855512	34.900002	139.833328	https://www.google.co.jp/maps/@34.900002,139.833328,15z
Hōjō	1862292	34.933331	134.833328	https://www.google.co.jp/maps/@34.933331,134.833328,15z
Shizuoka-shi	1851717	34.97694	138.383057	https://www.google.co.jp/maps/@34.97694,138.383057,15z
Takajōmachi	1851114	34.966671	138.383331	https://www.google.co.jp/maps/@34.966671,138.383331,15z
Shuzenji	1851632	34.966671	138.933334	https://www.google.co.jp/maps/@34.966671,138.933334,15z
Niimi	1855416	34.98333	133.466675	https://www.google.co.jp/maps/@34.98333,133.466675,15z
Nakai	1855947	34.98333	134.533325	https://www.google.co.jp/maps/@34.98333,134.533325,15z
Akuchi	1865404	35.01667	133.633331	https://www.google.co.jp/maps/@35.01667,133.633331,15z
Ōdaka	1854762	35.066669	136.933334	https://www.google.co.jp/maps/@35.066669,136.933334,15z
Numazu	1854902	35.099998	138.866669	https://www.google.co.jp/maps/@35.099998,138.866669,15z
Nagoya-shi	1856057	35.181469	136.906403	https://www.google.co.jp/maps/@35.181469,136.906403,15z
Takatachō	1850940	35.133331	136.933334	https://www.google.co.jp/maps/@35.133331,136.933334,15z
Nisshin	6822209	35.165829	136.963974	https://www.google.co.jp/maps/@35.165829,136.963974,15z
owariasahi	6698269	35.208	137.029999	https://www.google.co.jp/maps/@35.208,137.029999,15z
Echigawa	1864263	35.166672	136.199997	https://www.google.co.jp/maps/@35.166672,136.199997,15z
Manzawa	1857672	35.216671	138.516663	https://www.google.co.jp/maps/@35.216671,138.516663,15z
Tokuda	1850177	35.23333	136.583328	https://www.google.co.jp/maps/@35.23333,136.583328,15z
Inazawa	1861602	35.25	136.783325	https://www.google.co.jp/maps/@35.25,136.783325,15z
Ninomiya	1855380	35.303329	139.253326	https://www.google.co.jp/maps/@35.303329,139.253326,15z
Kami-yamasa	1860380	35.316669	133.116669	https://www.google.co.jp/maps/@35.316669,133.116669,15z
Takata	1907243	35.33889	139.423065	https://www.google.co.jp/maps/@35.33889,139.423065,15z
Kanazawa	1860244	35.349998	139.633331	https://www.google.co.jp/maps/@35.349998,139.633331,15z
Ueki	1849423	35.349998	139.516663	https://www.google.co.jp/maps/@35.349998,139.516663,15z
Totsukachō	1849897	35.400002	139.533325	https://www.google.co.jp/maps/@35.400002,139.533325,15z
Isehara	1861449	35.39056	139.307785	https://www.google.co.jp/maps/@35.39056,139.307785,15z
Kitasode	6419789	35.458328	140.008331	https://www.google.co.jp/maps/@35.458328,140.008331,15z
Kawara	1907225	35.47361	139.272781	https://www.google.co.jp/maps/@35.47361,139.272781,15z
Kikuna	1859479	35.5	139.633331	https://www.google.co.jp/maps/@35.5,139.633331,15z
Nishizu	1855114	35.516472	135.752304	https://www.google.co.jp/maps/@35.516472,135.752304,15z
Iida	1861864	35.51965	137.82074	https://www.google.co.jp/maps/@35.51965,137.82074,15z
Minawa	1907190	35.522781	139.319443	https://www.google.co.jp/maps/@35.522781,139.319443,15z
Kawasaki	1859642	35.520561	139.717224	https://www.google.co.jp/maps/@35.520561,139.717224,15z
Kugayama	1858480	35.683331	139.600006	https://www.google.co.jp/maps/@35.683331,139.600006,15z
Hino	1862599	35.673061	139.400284	https://www.google.co.jp/maps/@35.673061,139.400284,15z
Nakayama	1855730	35.716671	139.949997	https://www.google.co.jp/maps/@35.716671,139.949997,15z
Nerima	1855503	35.73333	139.649994	https://www.google.co.jp/maps/@35.73333,139.649994,15z
Shiki	1852502	35.833328	139.583328	https://www.google.co.jp/maps/@35.833328,139.583328,15z
Soka	1851604	35.820278	139.804443	https://www.google.co.jp/maps/@35.820278,139.804443,15z
Kamifukuoka	1907125	35.872501	139.50972	https://www.google.co.jp/maps/@35.872501,139.50972,15z
Inashiki	6822108	35.956329	140.323563	https://www.google.co.jp/maps/@35.956329,140.323563,15z
Tsuchiura	6822099	36.090469	140.210464	https://www.google.co.jp/maps/@36.090469,140.210464,15z
Muraimachi	1856435	36.166672	137.966675	https://www.google.co.jp/maps/@36.166672,137.966675,15z
Kanazu	1860239	36.213261	136.230804	https://www.google.co.jp/maps/@36.213261,136.230804,15z
Momiyama	2111846	36.183331	140.550003	https://www.google.co.jp/maps/@36.183331,140.550003,15z
Nagasu	2111756	36.283329	140.516663	https://www.google.co.jp/maps/@36.283329,140.516663,15z
Shimodate	1852347	36.299999	139.983337	https://www.google.co.jp/maps/@36.299999,139.983337,15z
Koibuchi	2112176	36.349998	140.366669	https://www.google.co.jp/maps/@36.349998,140.366669,15z
Sugisaki	2110964	36.383331	140.350006	https://www.google.co.jp/maps/@36.383331,140.350006,15z
Mizuki	2111862	36.51667	140.633331	https://www.google.co.jp/maps/@36.51667,140.633331,15z
Noguchi	2111594	36.549999	140.333328	https://www.google.co.jp/maps/@36.549999,140.333328,15z
Suwa	2110944	36.566669	140.633331	https://www.google.co.jp/maps/@36.566669,140.633331,15z
Yoshida	1848211	36.666672	138.216675	https://www.google.co.jp/maps/@36.666672,138.216675,15z
Miwa	1856845	36.666672	138.199997	https://www.google.co.jp/maps/@36.666672,138.199997,15z
Takenouchi	1850837	36.700001	137.300003	https://www.google.co.jp/maps/@36.700001,137.300003,15z
Kitakubo	2112216	36.73333	140.716675	https://www.google.co.jp/maps/@36.73333,140.716675,15z
Kitaibaraki	2112232	36.783329	140.75	https://www.google.co.jp/maps/@36.783329,140.75,15z
Fukushima-ken	2112922	37.38158	140.221985	https://www.google.co.jp/maps/@37.38158,140.221985,15z
Tsuzura	2110661	37.033329	140.850006	https://www.google.co.jp/maps/@37.033329,140.850006,15z
Tochigi-ken	1850310	36.692589	139.816132	https://www.google.co.jp/maps/@36.692589,139.816132,15z
Shiozawa	1851951	37.066669	139.933334	https://www.google.co.jp/maps/@37.066669,139.933334,15z
Sukagawa	2110959	37.283329	140.383331	https://www.google.co.jp/maps/@37.283329,140.383331,15z
Akanuma	2113136	37.366669	140.433334	https://www.google.co.jp/maps/@37.366669,140.433334,15z
Ōtsuki	2111302	37.383331	140.316666	https://www.google.co.jp/maps/@37.383331,140.316666,15z
Odaka	2111540	37.566669	140.983337	https://www.google.co.jp/maps/@37.566669,140.983337,15z
Morioka-shi	2111834	39.703609	141.152496	https://www.google.co.jp/maps/@39.703609,141.152496,15z
Sembokuchō	2111154	39.683331	141.149994	https://www.google.co.jp/maps/@39.683331,141.149994,15z
Misawa	2129211	40.683609	141.359726	https://www.google.co.jp/maps/@40.683609,141.359726,15z
Nubinai	2128852	42.51667	143.149994	https://www.google.co.jp/maps/@42.51667,143.149994,15z
Nishikioka	2128922	42.599998	141.483337	https://www.google.co.jp/maps/@42.599998,141.483337,15z
Chitose	2130452	42.819439	141.652222	https://www.google.co.jp/maps/@42.819439,141.652222,15z
Kutchan	2129365	42.901112	140.740555	https://www.google.co.jp/maps/@42.901112,140.740555,15z
Ōmagari	2128690	42.968891	141.473892	https://www.google.co.jp/maps/@42.968891,141.473892,15z
Moiwashita	2129176	43	141.350006	https://www.google.co.jp/maps/@43,141.350006,15z
Hachimanchō	2130209	43.25	141.366669	https://www.google.co.jp/maps/@43.25,141.366669,15z
Kyōritsu	2129349	44.084438	144.053894	https://www.google.co.jp/maps/@44.084438,144.053894,15z
Kusanru	2129379	45.400002	141.683334	https://www.google.co.jp/maps/@45.400002,141.683334,15z
Bentendōri	2130557	45.400002	141.683334	https://www.google.co.jp/maps/@45.400002,141.683334,15z
Kumamoto-shi	1858421	32.789719	130.741669	https://www.google.co.jp/maps/@32.789719,130.741669,15z
Hidaka	2130116	42.87278	142.440567	https://www.google.co.jp/maps/@42.87278,142.440567,15z
Abiko	2113164	35.866669	140.016663	https://www.google.co.jp/maps/@35.866669,140.016663,15z
Fukuroi	1863945	34.75	137.916672	https://www.google.co.jp/maps/@34.75,137.916672,15z
Okayama-shi	1854383	34.661671	133.934998	https://www.google.co.jp/maps/@34.661671,133.934998,15z
Tokyo	1850147	35.689499	139.691711	https://www.google.co.jp/maps/@35.689499,139.691711,15z
Omuta	1854083	33.033329	130.449997	https://www.google.co.jp/maps/@33.033329,130.449997,15z
Akashi	1847966	34.633331	134.983337	https://www.google.co.jp/maps/@34.633331,134.983337,15z
Kachikawa	1860887	35.23333	136.949997	https://www.google.co.jp/maps/@35.23333,136.949997,15z
Kosai-shi	1858756	34.718399	137.531754	https://www.google.co.jp/maps/@34.718399,137.531754,15z
Furuichi	1863834	34.450001	132.466675	https://www.google.co.jp/maps/@34.450001,132.466675,15z
Fushimi	1863788	34.935551	135.761322	https://www.google.co.jp/maps/@34.935551,135.761322,15z
Otofuke	2128558	42.991669	143.200287	https://www.google.co.jp/maps/@42.991669,143.200287,15z
Banchō	1864815	35.683331	139.75	https://www.google.co.jp/maps/@35.683331,139.75,15z
-shOsakai	1853909	34.693741	135.502182	https://www.google.co.jp/maps/@34.693741,135.502182,15z
Yokohama-shi	1848354	35.447781	139.642502	https://www.google.co.jp/maps/@35.447781,139.642502,15z
Naka	2111749	36.049999	140.166672	https://www.google.co.jp/maps/@36.049999,140.166672,15z
Kawagoe	1859740	35.908611	139.485275	https://www.google.co.jp/maps/@35.908611,139.485275,15z
Kobe-shi	1859171	34.691299	135.182999	https://www.google.co.jp/maps/@34.691299,135.182999,15z
Hadano	1863431	35.371109	139.223618	https://www.google.co.jp/maps/@35.371109,139.223618,15z
Fukuoka-shi	1863967	33.606392	130.41806	https://www.google.co.jp/maps/@33.606392,130.41806,15z
Kashiwa	1859924	35.854439	139.968887	https://www.google.co.jp/maps/@35.854439,139.968887,15z
Chiba-shi	2113015	35.604721	140.123337	https://www.google.co.jp/maps/@35.604721,140.123337,15z
Fuchu	1864154	35.666672	139.483337	https://www.google.co.jp/maps/@35.666672,139.483337,15z
Asahi	2113077	35.716671	140.649994	https://www.google.co.jp/maps/@35.716671,140.649994,15z
Chigasaki	1864624	35.326111	139.403885	https://www.google.co.jp/maps/@35.326111,139.403885,15z
Koshigaya	1858729	35.883331	139.783325	https://www.google.co.jp/maps/@35.883331,139.783325,15z
Yono	1848254	35.883331	139.633331	https://www.google.co.jp/maps/@35.883331,139.633331,15z
Hamamatsu	1863289	34.700001	137.733337	https://www.google.co.jp/maps/@34.700001,137.733337,15z
Wako	1907300	35.78944	139.623337	https://www.google.co.jp/maps/@35.78944,139.623337,15z
Chofu	1864518	35.65556	139.552216	https://www.google.co.jp/maps/@35.65556,139.552216,15z
Kanda	1860234	33.783329	130.983337	https://www.google.co.jp/maps/@33.783329,130.983337,15z
Takatsuki	1850910	34.848331	135.616776	https://www.google.co.jp/maps/@34.848331,135.616776,15z
kagoshima	7303136	31.595791	130.556717	https://www.google.co.jp/maps/@31.595791,130.556717,15z
Chiyoda-ku	1864529	35.694019	139.753632	https://www.google.co.jp/maps/@35.694019,139.753632,15z
Marunouchi	1857654	35.683331	139.766663	https://www.google.co.jp/maps/@35.683331,139.766663,15z
Kochino	1859129	35.333328	136.866669	https://www.google.co.jp/maps/@35.333328,136.866669,15z
Takahata	2110891	38.002499	140.191116	https://www.google.co.jp/maps/@38.002499,140.191116,15z
Yamagata-shi	2110556	38.240559	140.363327	https://www.google.co.jp/maps/@38.240559,140.363327,15z
Kasumichō	2112328	38.25	140.333328	https://www.google.co.jp/maps/@38.25,140.333328,15z
松山市	7303001	33.83905	132.756729	https://www.google.co.jp/maps/@33.83905,132.756729,15z
Yabase	2110584	39.716671	140.100006	https://www.google.co.jp/maps/@39.716671,140.100006,15z
Fujisawa	1864092	35.341942	139.470001	https://www.google.co.jp/maps/@35.341942,139.470001,15z
Kami-renjaku	1860437	35.683331	139.550003	https://www.google.co.jp/maps/@35.683331,139.550003,15z
Kasukabe	1859884	35.976391	139.753616	https://www.google.co.jp/maps/@35.976391,139.753616,15z
Funabashi	1863905	35.693062	139.983337	https://www.google.co.jp/maps/@35.693062,139.983337,15z
Tanashi	1850693	35.723888	139.522217	https://www.google.co.jp/maps/@35.723888,139.522217,15z
Sakai	1853195	34.583328	135.466675	https://www.google.co.jp/maps/@34.583328,135.466675,15z
Zama	1848004	35.488892	139.388611	https://www.google.co.jp/maps/@35.488892,139.388611,15z
Toyonaka	1849837	34.78244	135.469315	https://www.google.co.jp/maps/@34.78244,135.469315,15z
Asaka	1907299	35.804722	139.601944	https://www.google.co.jp/maps/@35.804722,139.601944,15z
Amagasaki	1865387	34.716671	135.416672	https://www.google.co.jp/maps/@34.716671,135.416672,15z
Ageo	1865714	35.969719	139.588608	https://www.google.co.jp/maps/@35.969719,139.588608,15z
Yokosuka	1848313	35.283611	139.667221	https://www.google.co.jp/maps/@35.283611,139.667221,15z
Kanzaki	1860095	33.299999	130.366669	https://www.google.co.jp/maps/@33.299999,130.366669,15z
Kushiro	2129376	42.974998	144.374725	https://www.google.co.jp/maps/@42.974998,144.374725,15z
Muroran	2129101	42.317219	140.988068	https://www.google.co.jp/maps/@42.317219,140.988068,15z
Tottori	1849892	35.5	134.233337	https://www.google.co.jp/maps/@35.5,134.233337,15z
Tsuruoka	1849563	38.721668	139.821671	https://www.google.co.jp/maps/@38.721668,139.821671,15z
Naruto	1855580	34.183331	134.616669	https://www.google.co.jp/maps/@34.183331,134.616669,15z
Miki	1857276	34.799999	134.983337	https://www.google.co.jp/maps/@34.799999,134.983337,15z
Oita-shi	1854487	33.23806	131.612503	https://www.google.co.jp/maps/@33.23806,131.612503,15z
Kofu-shi	1859100	35.663891	138.568329	https://www.google.co.jp/maps/@35.663891,138.568329,15z
Warabi	1848903	35.826389	139.704437	https://www.google.co.jp/maps/@35.826389,139.704437,15z
Ashikaga	1865005	36.333328	139.449997	https://www.google.co.jp/maps/@36.333328,139.449997,15z
Kawaguchi	1859730	35.805	139.720566	https://www.google.co.jp/maps/@35.805,139.720566,15z
Tochigi	1850311	36.383331	139.733337	https://www.google.co.jp/maps/@36.383331,139.733337,15z
Mori	1856586	34.833328	137.933334	https://www.google.co.jp/maps/@34.833328,137.933334,15z
Kanazawa-shi	1860243	36.59444	136.625565	https://www.google.co.jp/maps/@36.59444,136.625565,15z
Yamaguchi-shi	1848689	34.185829	131.47139	https://www.google.co.jp/maps/@34.185829,131.47139,15z
Matsuzaka	1857496	34.566669	136.533325	https://www.google.co.jp/maps/@34.566669,136.533325,15z
Karatsu	1860063	33.442501	129.969727	https://www.google.co.jp/maps/@33.442501,129.969727,15z
Imari	1861677	33.26667	129.883331	https://www.google.co.jp/maps/@33.26667,129.883331,15z
Ureshino	1849183	33.099998	129.983337	https://www.google.co.jp/maps/@33.099998,129.983337,15z
Kashima-shi	1860748	35.965359	140.644745	https://www.google.co.jp/maps/@35.965359,140.644745,15z
Tosu	1849904	33.366669	130.516663	https://www.google.co.jp/maps/@33.366669,130.516663,15z
Sasebo	1852899	33.159168	129.722778	https://www.google.co.jp/maps/@33.159168,129.722778,15z
Isahaya	1861464	32.84111	130.04306	https://www.google.co.jp/maps/@32.84111,130.04306,15z
Shimabara	1852479	32.783329	130.366669	https://www.google.co.jp/maps/@32.783329,130.366669,15z
Hirado	1862555	33.359718	129.553055	https://www.google.co.jp/maps/@33.359718,129.553055,15z
Daito	1864416	34.700001	135.616669	https://www.google.co.jp/maps/@34.700001,135.616669,15z
Asahikawa	2130629	43.76778	142.370285	https://www.google.co.jp/maps/@43.76778,142.370285,15z
Ogawa	1854665	36.049999	139.266663	https://www.google.co.jp/maps/@36.049999,139.266663,15z
Izumo	1861084	35.366669	132.766663	https://www.google.co.jp/maps/@35.366669,132.766663,15z
Iwakuni	1861212	34.150002	132.183334	https://www.google.co.jp/maps/@34.150002,132.183334,15z
Suzuka	1851348	34.883331	136.583328	https://www.google.co.jp/maps/@34.883331,136.583328,15z
Narita	2111684	35.783329	140.316666	https://www.google.co.jp/maps/@35.783329,140.316666,15z
Sakaide	1853190	34.316669	133.850006	https://www.google.co.jp/maps/@34.316669,133.850006,15z
Tomakomai	2127733	42.63694	141.603333	https://www.google.co.jp/maps/@42.63694,141.603333,15z
Kuwana	1857968	35.066669	136.699997	https://www.google.co.jp/maps/@35.066669,136.699997,15z
Yonago	1848277	35.433331	133.333328	https://www.google.co.jp/maps/@35.433331,133.333328,15z
Kariya	1860034	34.98333	136.983337	https://www.google.co.jp/maps/@34.98333,136.983337,15z
Nabari	1856293	34.616669	136.083328	https://www.google.co.jp/maps/@34.616669,136.083328,15z
Ichinomiya	1861949	35.299999	136.800003	https://www.google.co.jp/maps/@35.299999,136.800003,15z
Tokoname	1850185	34.883331	136.850006	https://www.google.co.jp/maps/@34.883331,136.850006,15z
Himeji	1862627	34.816669	134.699997	https://www.google.co.jp/maps/@34.816669,134.699997,15z
Machida	1857871	35.540279	139.450836	https://www.google.co.jp/maps/@35.540279,139.450836,15z
Kisarazu	1859393	35.374722	139.922501	https://www.google.co.jp/maps/@35.374722,139.922501,15z
Kanuma	1860098	36.549999	139.733337	https://www.google.co.jp/maps/@36.549999,139.733337,15z
Miyakonojo	1856775	31.73333	131.066666	https://www.google.co.jp/maps/@31.73333,131.066666,15z
Ichinoseki	2112656	38.916672	141.133331	https://www.google.co.jp/maps/@38.916672,141.133331,15z
Tatsuno	1850499	34.866669	134.550003	https://www.google.co.jp/maps/@34.866669,134.550003,15z
Takaoka	1851032	36.75	137.016663	https://www.google.co.jp/maps/@36.75,137.016663,15z
Oyama	1853483	36.299999	139.800003	https://www.google.co.jp/maps/@36.299999,139.800003,15z
Kurashiki	1858311	34.583328	133.766663	https://www.google.co.jp/maps/@34.583328,133.766663,15z
Kitakyushu	1859307	33.833328	130.833328	https://www.google.co.jp/maps/@33.833328,130.833328,15z
Ichikawa	1861968	35.719719	139.924713	https://www.google.co.jp/maps/@35.719719,139.924713,15z
Kurume	1858088	33.316669	130.516663	https://www.google.co.jp/maps/@33.316669,130.516663,15z
Iwaki	2112539	37.049999	140.883331	https://www.google.co.jp/maps/@37.049999,140.883331,15z
Ogaki	1854703	35.349998	136.616669	https://www.google.co.jp/maps/@35.349998,136.616669,15z
Tomioka	1850091	36.25	138.899994	https://www.google.co.jp/maps/@36.25,138.899994,15z
Nagai	2111781	38.103611	140.035004	https://www.google.co.jp/maps/@38.103611,140.035004,15z
Bibai	2130534	43.324718	141.858612	https://www.google.co.jp/maps/@43.324718,141.858612,15z
Kobayashi	1859175	31.98333	130.983337	https://www.google.co.jp/maps/@31.98333,130.983337,15z
Sakurai	1853066	34.5	135.850006	https://www.google.co.jp/maps/@34.5,135.850006,15z
Kawanishi	1859675	34.816669	135.416672	https://www.google.co.jp/maps/@34.816669,135.416672,15z
Yanagawa	1848573	33.166672	130.399994	https://www.google.co.jp/maps/@33.166672,130.399994,15z
Izumi	1861107	34.48333	135.433334	https://www.google.co.jp/maps/@34.48333,135.433334,15z
Noda	1855078	35.941109	139.858063	https://www.google.co.jp/maps/@35.941109,139.858063,15z
Zushi	1847968	35.291672	139.585556	https://www.google.co.jp/maps/@35.291672,139.585556,15z
Toda	1907301	35.809441	139.692505	https://www.google.co.jp/maps/@35.809441,139.692505,15z
Koga	1859094	33.73333	130.466675	https://www.google.co.jp/maps/@33.73333,130.466675,15z
Nishio	1855189	34.866669	137.050003	https://www.google.co.jp/maps/@34.866669,137.050003,15z
Kadoma	1860871	34.73333	135.583328	https://www.google.co.jp/maps/@34.73333,135.583328,15z
Izumiotsu	1861095	34.5	135.399994	https://www.google.co.jp/maps/@34.5,135.399994,15z
Komaki	1858926	35.283329	136.916672	https://www.google.co.jp/maps/@35.283329,136.916672,15z
Matsumoto	1857519	36.23333	137.966675	https://www.google.co.jp/maps/@36.23333,137.966675,15z
Yoshikawa	1848188	35.885281	139.839447	https://www.google.co.jp/maps/@35.885281,139.839447,15z
Kitami	2129537	43.803059	143.890823	https://www.google.co.jp/maps/@43.803059,143.890823,15z
Matsubara	1857568	34.566669	135.550003	https://www.google.co.jp/maps/@34.566669,135.550003,15z
Yawata	1848439	34.87009	135.702698	https://www.google.co.jp/maps/@34.87009,135.702698,15z
Musashino	1856367	35.706108	139.559433	https://www.google.co.jp/maps/@35.706108,139.559433,15z
Yonezawa	2110498	37.916672	140.116669	https://www.google.co.jp/maps/@37.916672,140.116669,15z
Inuyama	1861528	35.379951	136.942947	https://www.google.co.jp/maps/@35.379951,136.942947,15z
Katsuyama	1859765	36.061729	136.501007	https://www.google.co.jp/maps/@36.061729,136.501007,15z
Tono	2110735	39.316669	141.533325	https://www.google.co.jp/maps/@39.316669,141.533325,15z
Nago	1856068	26.58806	127.976112	https://www.google.co.jp/maps/@26.58806,127.976112,15z
Ishii	1861400	34.066669	134.433334	https://www.google.co.jp/maps/@34.066669,134.433334,15z
Sakata	1853140	38.916672	139.854996	https://www.google.co.jp/maps/@38.916672,139.854996,15z
Tarui	1850600	35.366669	136.533325	https://www.google.co.jp/maps/@35.366669,136.533325,15z
Godo	1863611	35.416672	136.600006	https://www.google.co.jp/maps/@35.416672,136.600006,15z
Takahama	1851155	34.916672	136.983337	https://www.google.co.jp/maps/@34.916672,136.983337,15z
Tsukumi	1849661	33.07056	131.857224	https://www.google.co.jp/maps/@33.07056,131.857224,15z
Iizuka	1861835	33.633331	130.683334	https://www.google.co.jp/maps/@33.633331,130.683334,15z
Kiryu	1859405	36.400002	139.333328	https://www.google.co.jp/maps/@36.400002,139.333328,15z
Hirakata	1862540	34.813519	135.649139	https://www.google.co.jp/maps/@34.813519,135.649139,15z
Tamamura	1850746	36.299999	139.116669	https://www.google.co.jp/maps/@36.299999,139.116669,15z
Shibukawa	1852595	36.48333	139	https://www.google.co.jp/maps/@36.48333,139,15z
Yoichi	2129218	43.203892	140.770279	https://www.google.co.jp/maps/@43.203892,140.770279,15z
Kodaira	1859116	35.726391	139.483887	https://www.google.co.jp/maps/@35.726391,139.483887,15z
Sano	1852964	36.316669	139.583328	https://www.google.co.jp/maps/@36.316669,139.583328,15z
Kokubunji	1858964	35.702221	139.475555	https://www.google.co.jp/maps/@35.702221,139.475555,15z
Toride	2110729	35.900002	140.083328	https://www.google.co.jp/maps/@35.900002,140.083328,15z
Kamaishi	2112444	39.26667	141.883331	https://www.google.co.jp/maps/@39.26667,141.883331,15z
Saku	1853081	36.216671	138.483337	https://www.google.co.jp/maps/@36.216671,138.483337,15z
Yotsukaido	2110480	35.650002	140.166672	https://www.google.co.jp/maps/@35.650002,140.166672,15z
Shiraoka	1851883	36.01667	139.666672	https://www.google.co.jp/maps/@36.01667,139.666672,15z
Mishima	1856977	35.116669	138.916672	https://www.google.co.jp/maps/@35.116669,138.916672,15z
Kuki	1858445	36.066669	139.666672	https://www.google.co.jp/maps/@36.066669,139.666672,15z
Hashimoto	1863082	34.316669	135.616669	https://www.google.co.jp/maps/@34.316669,135.616669,15z
Shimada	1852472	34.816669	138.183334	https://www.google.co.jp/maps/@34.816669,138.183334,15z
Yaizu	1848774	34.866669	138.333328	https://www.google.co.jp/maps/@34.866669,138.333328,15z
Odawara	1854747	35.255562	139.159714	https://www.google.co.jp/maps/@35.255562,139.159714,15z
Atsugi	1847963	35.438889	139.359726	https://www.google.co.jp/maps/@35.438889,139.359726,15z
Takasaki	1851002	36.333328	139.016663	https://www.google.co.jp/maps/@36.333328,139.016663,15z
Okaya	1854384	36.056591	138.045105	https://www.google.co.jp/maps/@36.056591,138.045105,15z
Komono	1858866	35	136.516663	https://www.google.co.jp/maps/@35,136.516663,15z
Tsubame	1849788	37.650002	138.933334	https://www.google.co.jp/maps/@37.650002,138.933334,15z
Takahashi	1851137	34.783329	133.616669	https://www.google.co.jp/maps/@34.783329,133.616669,15z
Kamo	1860341	37.650002	139.050003	https://www.google.co.jp/maps/@37.650002,139.050003,15z
Nobeoka	1855095	32.583328	131.666672	https://www.google.co.jp/maps/@32.583328,131.666672,15z
Tahara	1851259	34.666672	137.266663	https://www.google.co.jp/maps/@34.666672,137.266663,15z
Odate	2128787	40.268608	140.568329	https://www.google.co.jp/maps/@40.268608,140.568329,15z
Tomiya	2110744	38.393059	140.886108	https://www.google.co.jp/maps/@38.393059,140.886108,15z
Chiryu	1864549	35	137.033325	https://www.google.co.jp/maps/@35,137.033325,15z
Hikone	1862636	35.25	136.25	https://www.google.co.jp/maps/@35.25,136.25,15z
Mino	1857062	35.533329	136.916672	https://www.google.co.jp/maps/@35.533329,136.916672,15z
Kunitachi	1907165	35.674438	139.434998	https://www.google.co.jp/maps/@35.674438,139.434998,15z
Shizukuishi	2110994	39.683331	140.983337	https://www.google.co.jp/maps/@39.683331,140.983337,15z
Otsuchi	2111310	39.366669	141.899994	https://www.google.co.jp/maps/@39.366669,141.899994,15z
Hanamaki	2112823	39.383331	141.116669	https://www.google.co.jp/maps/@39.383331,141.116669,15z
Ogose	1854626	35.958889	139.289993	https://www.google.co.jp/maps/@35.958889,139.289993,15z
Takaishi	1851125	34.51667	135.433334	https://www.google.co.jp/maps/@34.51667,135.433334,15z
Seto	1852663	35.23333	137.100006	https://www.google.co.jp/maps/@35.23333,137.100006,15z
Tsubata	1849782	36.666672	136.733337	https://www.google.co.jp/maps/@36.666672,136.733337,15z
Takehara	1850860	34.338329	132.916672	https://www.google.co.jp/maps/@34.338329,132.916672,15z
Usuki	1849094	33.108059	131.787781	https://www.google.co.jp/maps/@33.108059,131.787781,15z
Kameyama	1860626	34.849998	136.449997	https://www.google.co.jp/maps/@34.849998,136.449997,15z
Shisui	2111008	35.716671	140.266663	https://www.google.co.jp/maps/@35.716671,140.266663,15z
Hiratsuka	1862462	35.323059	139.342224	https://www.google.co.jp/maps/@35.323059,139.342224,15z
Isesaki	1861436	36.316669	139.199997	https://www.google.co.jp/maps/@36.316669,139.199997,15z
Higashine	2112758	38.438889	140.400558	https://www.google.co.jp/maps/@38.438889,140.400558,15z
Kimitsu	1907307	35.325279	139.891113	https://www.google.co.jp/maps/@35.325279,139.891113,15z
Tadotsu	1851282	34.275002	133.75	https://www.google.co.jp/maps/@34.275002,133.75,15z
Motegi	2111827	36.51667	140.183334	https://www.google.co.jp/maps/@36.51667,140.183334,15z
Ibusuki	1862010	31.23333	130.649994	https://www.google.co.jp/maps/@31.23333,130.649994,15z
Kaita	1897590	34.366669	132.550003	https://www.google.co.jp/maps/@34.366669,132.550003,15z
Omura	1854093	32.921391	129.953888	https://www.google.co.jp/maps/@32.921391,129.953888,15z
Akune	1865401	32.01667	130.199997	https://www.google.co.jp/maps/@32.01667,130.199997,15z
Minamata	1857208	32.216671	130.399994	https://www.google.co.jp/maps/@32.216671,130.399994,15z
Kushikino	1858041	31.716669	130.266663	https://www.google.co.jp/maps/@31.716669,130.266663,15z
Obama	1854849	35.495762	135.746033	https://www.google.co.jp/maps/@35.495762,135.746033,15z
Shiroishi	2111016	38.00333	140.618332	https://www.google.co.jp/maps/@38.00333,140.618332,15z
Koganei	1859088	35.691391	139.501114	https://www.google.co.jp/maps/@35.691391,139.501114,15z
Sanda	1853008	34.883331	135.233337	https://www.google.co.jp/maps/@34.883331,135.233337,15z
Gyoda	1863482	36.133331	139.449997	https://www.google.co.jp/maps/@36.133331,139.449997,15z
Yuzawa	2110460	39.166672	140.5	https://www.google.co.jp/maps/@39.166672,140.5,15z
Okawa	1854405	33.200001	130.350006	https://www.google.co.jp/maps/@33.200001,130.350006,15z
Hirao	1862513	33.938332	132.071671	https://www.google.co.jp/maps/@33.938332,132.071671,15z
Yuki	1848096	36.299999	139.883331	https://www.google.co.jp/maps/@36.299999,139.883331,15z
Moriyama	1856569	35.066669	135.983337	https://www.google.co.jp/maps/@35.066669,135.983337,15z
Tenri	1850396	34.583328	135.833328	https://www.google.co.jp/maps/@34.583328,135.833328,15z
Nanao	1855670	37.049999	136.966675	https://www.google.co.jp/maps/@37.049999,136.966675,15z
Koriyama	2112141	37.400002	140.383331	https://www.google.co.jp/maps/@37.400002,140.383331,15z
Susami	1851383	33.549999	135.5	https://www.google.co.jp/maps/@33.549999,135.5,15z
Kushimoto	1858033	33.466671	135.783325	https://www.google.co.jp/maps/@33.466671,135.783325,15z
Shingu	1847947	33.73333	135.983337	https://www.google.co.jp/maps/@33.73333,135.983337,15z
Kainan	1860785	34.150002	135.199997	https://www.google.co.jp/maps/@34.150002,135.199997,15z
Fujisaki	2130337	40.650829	140.491394	https://www.google.co.jp/maps/@40.650829,140.491394,15z
Gamagori	1863693	34.833328	137.233337	https://www.google.co.jp/maps/@34.833328,137.233337,15z
Ushiku	2110629	35.966671	140.133331	https://www.google.co.jp/maps/@35.966671,140.133331,15z
Nakatsugawa	1855753	35.48333	137.5	https://www.google.co.jp/maps/@35.48333,137.5,15z
Kamakura	1860672	35.308891	139.550278	https://www.google.co.jp/maps/@35.308891,139.550278,15z
Hagi	1863418	34.400002	131.416672	https://www.google.co.jp/maps/@34.400002,131.416672,15z
Nonoichi	1854979	36.533329	136.616669	https://www.google.co.jp/maps/@36.533329,136.616669,15z
Iwamizawa	2129870	43.200279	141.75972	https://www.google.co.jp/maps/@43.200279,141.75972,15z
Suwa	1851368	36.037991	138.113083	https://www.google.co.jp/maps/@36.037991,138.113083,15z
Tsushima	1849539	35.166672	136.716675	https://www.google.co.jp/maps/@35.166672,136.716675,15z
Mooka	2111836	36.433331	140.016663	https://www.google.co.jp/maps/@36.433331,140.016663,15z
Shibushi	1852588	31.466669	131.104996	https://www.google.co.jp/maps/@31.466669,131.104996,15z
Makurazaki	1857712	31.26667	130.316666	https://www.google.co.jp/maps/@31.26667,130.316666,15z
Hiroo	2130061	42.28389	143.319168	https://www.google.co.jp/maps/@42.28389,143.319168,15z
Nakai	1907116	35.96833	139.158615	https://www.google.co.jp/maps/@35.96833,139.158615,15z
Tagawa	1851273	33.633331	130.800003	https://www.google.co.jp/maps/@33.633331,130.800003,15z
Nishiwaki	1855134	34.98333	134.966675	https://www.google.co.jp/maps/@34.98333,134.966675,15z
Moriya	2111831	35.933331	140	https://www.google.co.jp/maps/@35.933331,140,15z
Taiki	2127931	42.490559	143.274719	https://www.google.co.jp/maps/@42.490559,143.274719,15z
Ichihara	2112664	35.51667	140.083328	https://www.google.co.jp/maps/@35.51667,140.083328,15z
Hayama	1862992	35.26667	139.583328	https://www.google.co.jp/maps/@35.26667,139.583328,15z
Ishinomaki	2112576	38.416672	141.300003	https://www.google.co.jp/maps/@38.416672,141.300003,15z
Kadonowaki	2112473	38.416672	141.300003	https://www.google.co.jp/maps/@38.416672,141.300003,15z
Kasama	2112343	36.383331	140.266663	https://www.google.co.jp/maps/@36.383331,140.266663,15z
Itako	2112555	35.933331	140.550003	https://www.google.co.jp/maps/@35.933331,140.550003,15z
Mitsukaido	1856881	36.01667	139.983337	https://www.google.co.jp/maps/@36.01667,139.983337,15z
Daigo	2112989	36.76667	140.350006	https://www.google.co.jp/maps/@36.76667,140.350006,15z
Hachioji	1863440	35.65583	139.323883	https://www.google.co.jp/maps/@35.65583,139.323883,15z
Taketoyo	1850818	34.849998	136.916672	https://www.google.co.jp/maps/@34.849998,136.916672,15z
Hatogaya	1863023	35.834171	139.736389	https://www.google.co.jp/maps/@35.834171,139.736389,15z
Hasaki	2112802	35.73333	140.833328	https://www.google.co.jp/maps/@35.73333,140.833328,15z
Tachikawa	1851307	35.69278	139.41806	https://www.google.co.jp/maps/@35.69278,139.41806,15z
Kumagaya	1858428	36.133331	139.383331	https://www.google.co.jp/maps/@36.133331,139.383331,15z
Anan	1865309	33.916672	134.649994	https://www.google.co.jp/maps/@33.916672,134.649994,15z
Onomichi	1853992	34.416672	133.199997	https://www.google.co.jp/maps/@34.416672,133.199997,15z
Tokashiki	1850213	26.192499	127.358612	https://www.google.co.jp/maps/@26.192499,127.358612,15z
Hirara	1862505	24.799999	125.283333	https://www.google.co.jp/maps/@24.799999,125.283333,15z
Takatorichō	1850924	34.650002	135.133331	https://www.google.co.jp/maps/@34.650002,135.133331,15z
Iwada	2112551	35.183331	140.366669	https://www.google.co.jp/maps/@35.183331,140.366669,15z
Ayabe	1864873	35.299999	135.25	https://www.google.co.jp/maps/@35.299999,135.25,15z
Koori	2112144	37.833328	140.516663	https://www.google.co.jp/maps/@37.833328,140.516663,15z
Shiojiri	1852003	36.099998	137.966675	https://www.google.co.jp/maps/@36.099998,137.966675,15z
Hayashima	1862971	34.599998	133.833328	https://www.google.co.jp/maps/@34.599998,133.833328,15z
Kazuno	2130146	40.183609	140.787216	https://www.google.co.jp/maps/@40.183609,140.787216,15z
Honjo	1862198	36.23333	139.183334	https://www.google.co.jp/maps/@36.23333,139.183334,15z
Tsuruga	1849592	35.64547	136.055801	https://www.google.co.jp/maps/@35.64547,136.055801,15z
Kamiichi	1860563	36.700001	137.366669	https://www.google.co.jp/maps/@36.700001,137.366669,15z
Shirako	1851898	35.76667	139.633331	https://www.google.co.jp/maps/@35.76667,139.633331,15z
Takikawa	2127896	43.55278	141.906387	https://www.google.co.jp/maps/@43.55278,141.906387,15z
Haebaru	1894628	26.184719	127.722504	https://www.google.co.jp/maps/@26.184719,127.722504,15z
Yonabaru	1848281	26.201389	127.753891	https://www.google.co.jp/maps/@26.201389,127.753891,15z
Tsumuura	6418686	34.450001	134.001663	https://www.google.co.jp/maps/@34.450001,134.001663,15z
Fujinomiya	1864105	35.216671	138.616669	https://www.google.co.jp/maps/@35.216671,138.616669,15z
Ōmiya	1854128	35.216671	138.616669	https://www.google.co.jp/maps/@35.216671,138.616669,15z
Handa	1863209	34.883331	136.933334	https://www.google.co.jp/maps/@34.883331,136.933334,15z
Shiroi	2111018	35.799999	140.066666	https://www.google.co.jp/maps/@35.799999,140.066666,15z
Hirosaki	2130057	40.59306	140.472504	https://www.google.co.jp/maps/@40.59306,140.472504,15z
Ifukugata	1861903	32.51667	131.666672	https://www.google.co.jp/maps/@32.51667,131.666672,15z
Komatsushima	1858902	34	134.583328	https://www.google.co.jp/maps/@34,134.583328,15z
Kokubu	1858972	31.73333	130.766663	https://www.google.co.jp/maps/@31.73333,130.766663,15z
Kudamatsu	1858498	34	131.866669	https://www.google.co.jp/maps/@34,131.866669,15z
Tabuse	1851323	33.950001	132.066666	https://www.google.co.jp/maps/@33.950001,132.066666,15z
Kashihara	1859952	34.583328	135.616669	https://www.google.co.jp/maps/@34.583328,135.616669,15z
Yanai	1848550	33.966671	132.116669	https://www.google.co.jp/maps/@33.966671,132.116669,15z
Uno	1849274	34.48333	133.949997	https://www.google.co.jp/maps/@34.48333,133.949997,15z
Kitakata	1859319	37.650002	139.866669	https://www.google.co.jp/maps/@37.650002,139.866669,15z
Kitsuki	1859234	33.416672	131.616669	https://www.google.co.jp/maps/@33.416672,131.616669,15z
Maebashi-shi	1857843	36.391109	139.060837	https://www.google.co.jp/maps/@36.391109,139.060837,15z
Horonobe	2129984	45.016941	141.851395	https://www.google.co.jp/maps/@45.016941,141.851395,15z
Wakkanai	2127515	45.409439	141.673889	https://www.google.co.jp/maps/@45.409439,141.673889,15z
Ashoro	2130603	43.237221	143.542786	https://www.google.co.jp/maps/@43.237221,143.542786,15z
Tsurugasaki	1849588	34.883331	136.983337	https://www.google.co.jp/maps/@34.883331,136.983337,15z
Kunigami	1858373	27.41667	128.683334	https://www.google.co.jp/maps/@27.41667,128.683334,15z
Tsubetsu	2127635	43.703892	144.021103	https://www.google.co.jp/maps/@43.703892,144.021103,15z
Suita	1851483	34.761429	135.515671	https://www.google.co.jp/maps/@34.761429,135.515671,15z
Matsudo	1857553	35.783329	139.899994	https://www.google.co.jp/maps/@35.783329,139.899994,15z
Otsuki	1853564	35.599998	138.933334	https://www.google.co.jp/maps/@35.599998,138.933334,15z
Oiso	1854492	35.303059	139.30278	https://www.google.co.jp/maps/@35.303059,139.30278,15z
Hita	1862373	33.316669	130.933334	https://www.google.co.jp/maps/@33.316669,130.933334,15z
Mizunami	1856667	35.366669	137.25	https://www.google.co.jp/maps/@35.366669,137.25,15z
Toki	1850207	35.349998	137.183334	https://www.google.co.jp/maps/@35.349998,137.183334,15z
Kasamatsucho	1859998	35.366669	136.766663	https://www.google.co.jp/maps/@35.366669,136.766663,15z
Narashino	2111687	35.683331	140.033325	https://www.google.co.jp/maps/@35.683331,140.033325,15z
Hanno	1863183	35.85194	139.318054	https://www.google.co.jp/maps/@35.85194,139.318054,15z
Hasuda	1907123	35.975559	139.650833	https://www.google.co.jp/maps/@35.975559,139.650833,15z
Yakumo	2127478	42.253891	140.269165	https://www.google.co.jp/maps/@42.253891,140.269165,15z
Mibu	1857379	36.416672	139.800003	https://www.google.co.jp/maps/@36.416672,139.800003,15z
Kaminokawa	1860458	36.433331	139.916672	https://www.google.co.jp/maps/@36.433331,139.916672,15z
Goshogawara	2131612	40.80444	140.441391	https://www.google.co.jp/maps/@40.80444,140.441391,15z
Satte	1852849	36.066669	139.716675	https://www.google.co.jp/maps/@36.066669,139.716675,15z
Nagareyama	1856184	35.8563	139.902664	https://www.google.co.jp/maps/@35.8563,139.902664,15z
Yūbari	2127419	43.037781	141.957779	https://www.google.co.jp/maps/@43.037781,141.957779,15z
Urayasu	1849186	35.670559	139.888611	https://www.google.co.jp/maps/@35.670559,139.888611,15z
Hiji	1862689	33.366669	131.533325	https://www.google.co.jp/maps/@33.366669,131.533325,15z
Wadayama	1848991	35.316669	134.866669	https://www.google.co.jp/maps/@35.316669,134.866669,15z
Shintoku	2128095	43.074718	142.834717	https://www.google.co.jp/maps/@43.074718,142.834717,15z
Chichibu	1864637	35.99028	139.076385	https://www.google.co.jp/maps/@35.99028,139.076385,15z
Shitara	1851751	35.099998	137.566666	https://www.google.co.jp/maps/@35.099998,137.566666,15z
Sagamihara	1853295	35.553059	139.354446	https://www.google.co.jp/maps/@35.553059,139.354446,15z
Anjo	1865294	34.958279	137.080536	https://www.google.co.jp/maps/@34.958279,137.080536,15z
Mutsu	2127878	41.28944	141.216934	https://www.google.co.jp/maps/@41.28944,141.216934,15z
Fujieda	1864132	34.866669	138.266663	https://www.google.co.jp/maps/@34.866669,138.266663,15z
Gushikawa	1863495	26.354441	127.868607	https://www.google.co.jp/maps/@26.354441,127.868607,15z
Nyuzen	1854868	36.933331	137.5	https://www.google.co.jp/maps/@36.933331,137.5,15z
Isoshi	1861336	34.79689	135.355606	https://www.google.co.jp/maps/@34.79689,135.355606,15z
Hitoyoshi	1862352	32.216671	130.75	https://www.google.co.jp/maps/@32.216671,130.75,15z
Tatebayashi	1850559	36.25	139.533325	https://www.google.co.jp/maps/@36.25,139.533325,15z
Manazuru	1857692	35.153889	139.135559	https://www.google.co.jp/maps/@35.153889,139.135559,15z
Tateishi	2110812	38.98333	141.116669	https://www.google.co.jp/maps/@38.98333,141.116669,15z
Iwanuma	2112527	38.104721	140.859436	https://www.google.co.jp/maps/@38.104721,140.859436,15z
Shirayama	1851842	36.433331	136.633331	https://www.google.co.jp/maps/@36.433331,136.633331,15z
Nanae	2129003	41.883331	140.683334	https://www.google.co.jp/maps/@41.883331,140.683334,15z
Shihoro	2128186	43.166672	143.25	https://www.google.co.jp/maps/@43.166672,143.25,15z
Fujioka	1864099	36.25	139.083328	https://www.google.co.jp/maps/@36.25,139.083328,15z
Miyazu	1856703	35.533329	135.183334	https://www.google.co.jp/maps/@35.533329,135.183334,15z
Tajimi	1851193	35.316669	137.133331	https://www.google.co.jp/maps/@35.316669,137.133331,15z
Mitsuke	1856878	37.533329	138.933334	https://www.google.co.jp/maps/@37.533329,138.933334,15z
Gosen	1863540	37.73333	139.166672	https://www.google.co.jp/maps/@37.73333,139.166672,15z
Sasayama	1852901	35.066669	135.216675	https://www.google.co.jp/maps/@35.066669,135.216675,15z
Dōshi	1864338	35.583328	139.216675	https://www.google.co.jp/maps/@35.583328,139.216675,15z
Okegawa	1854371	36	139.55722	https://www.google.co.jp/maps/@36,139.55722,15z
Kakegawa	1860728	34.76667	138.016663	https://www.google.co.jp/maps/@34.76667,138.016663,15z
Mashiko	2111999	36.466671	140.100006	https://www.google.co.jp/maps/@36.466671,140.100006,15z
Mobara	2111855	35.416672	140.300003	https://www.google.co.jp/maps/@35.416672,140.300003,15z
Yorii	1848243	36.116669	139.199997	https://www.google.co.jp/maps/@36.116669,139.199997,15z
Ishikari	2129909	43.239719	141.353897	https://www.google.co.jp/maps/@43.239719,141.353897,15z
Kakamigahara	1860735	35.416672	136.866669	https://www.google.co.jp/maps/@35.416672,136.866669,15z
Sayō	1852831	35	134.366669	https://www.google.co.jp/maps/@35,134.366669,15z
Annaka	1865290	36.316669	138.899994	https://www.google.co.jp/maps/@36.316669,138.899994,15z
Komae	1907306	35.636391	139.574432	https://www.google.co.jp/maps/@35.636391,139.574432,15z
Tsukawaki	1849706	33.26667	131.149994	https://www.google.co.jp/maps/@33.26667,131.149994,15z
Tokorozawa	1850181	35.79916	139.469025	https://www.google.co.jp/maps/@35.79916,139.469025,15z
Setana	2038715	42.451389	139.851395	https://www.google.co.jp/maps/@42.451389,139.851395,15z
Sōbetsu	2127985	42.555828	140.886108	https://www.google.co.jp/maps/@42.555828,140.886108,15z
Horokanai	2130001	44.005829	142.154434	https://www.google.co.jp/maps/@44.005829,142.154434,15z
Hamatonbetsu	2131651	45.133331	142.383331	https://www.google.co.jp/maps/@45.133331,142.383331,15z
Wassamu	2127500	44.020828	142.417786	https://www.google.co.jp/maps/@44.020828,142.417786,15z
Tsukigata	2127626	43.335281	141.669434	https://www.google.co.jp/maps/@43.335281,141.669434,15z
Abira	2130732	42.816669	141.833328	https://www.google.co.jp/maps/@42.816669,141.833328,15z
Aibetsu	2130723	43.906551	142.577484	https://www.google.co.jp/maps/@43.906551,142.577484,15z
Sarufutsu	2128277	45.256939	142.200287	https://www.google.co.jp/maps/@45.256939,142.200287,15z
Shimukappu	2128112	43	142.416672	https://www.google.co.jp/maps/@43,142.416672,15z
Okawara	2111461	38.049999	140.733612	https://www.google.co.jp/maps/@38.049999,140.733612,15z
Mashike	2130558	43.85194	141.521393	https://www.google.co.jp/maps/@43.85194,141.521393,15z
Tendo	2110793	38.353611	140.36972	https://www.google.co.jp/maps/@38.353611,140.36972,15z
Morohongo	1856560	35.935558	139.304443	https://www.google.co.jp/maps/@35.935558,139.304443,15z
Ikoma	1861749	34.683331	135.699997	https://www.google.co.jp/maps/@34.683331,135.699997,15z
Sakaiminato	1853174	35.549999	133.233337	https://www.google.co.jp/maps/@35.549999,133.233337,15z
Marumori	2112008	37.916672	140.766663	https://www.google.co.jp/maps/@37.916672,140.766663,15z
Wadomari	1848988	27.383329	128.649994	https://www.google.co.jp/maps/@27.383329,128.649994,15z
Miharu	2111943	37.433331	140.483337	https://www.google.co.jp/maps/@37.433331,140.483337,15z
Hakone	1863357	35.183331	139.033325	https://www.google.co.jp/maps/@35.183331,139.033325,15z
